%time,field.transforms0.header.seq,field.transforms0.header.stamp,field.transforms0.header.frame_id,field.transforms0.child_frame_id,field.transforms0.transform.translation.x,field.transforms0.transform.translation.y,field.transforms0.transform.translation.z,field.transforms0.transform.rotation.x,field.transforms0.transform.rotation.y,field.transforms0.transform.rotation.z,field.transforms0.transform.rotation.w,field.transforms1.header.seq,field.transforms1.header.stamp,field.transforms1.header.frame_id,field.transforms1.child_frame_id,field.transforms1.transform.translation.x,field.transforms1.transform.translation.y,field.transforms1.transform.translation.z,field.transforms1.transform.rotation.x,field.transforms1.transform.rotation.y,field.transforms1.transform.rotation.z,field.transforms1.transform.rotation.w
1554941723400693956,0,1305031098425826548,/kinect,/openni_camera,-0.0112272525515,0.0502554918469,-0.0574041954071,0.129908557896,-0.141388223098,0.681948549539,0.705747343414,0,1305031098425826548,/world,/kinect,1.36557455444,0.594936477661,1.73326101685,-0.290218127334,-0.303852355187,0.61973983294,0.662849699616
1554941723400719970,0,1305031098435772524,/kinect,/openni_camera,-0.0112272525515,0.0502554918469,-0.0574041954071,0.129908557896,-0.141388223098,0.681948549539,0.705747343414,0,1305031098435772524,/world,/kinect,1.36538265991,0.594986045837,1.73320004272,-0.289985633152,-0.303679709067,0.619095725048,0.663632014066
1554941723400731448,0,1305031098445775237,/kinect,/openni_camera,-0.0112272525515,0.0502554918469,-0.0574041954071,0.129908557896,-0.141388223098,0.681948549539,0.705747343414,0,1305031098445775237,/world,/kinect,1.365234375,0.595067749023,1.73305795288,-0.290241530606,-0.303887099085,0.618430743088,0.664045104586
1554941723400741038,0,1305031098455753500,/kinect,/openni_camera,-0.0112272525515,0.0502554918469,-0.0574041954071,0.129908557896,-0.141388223098,0.681948549539,0.705747343414,0,1305031098455753500,/world,/kinect,1.36495150757,0.5951847229,1.73282104492,-0.290704731393,-0.304141612128,0.617643627263,0.664458417525
1554941723404428928,0,1305031098465755390,/kinect,/openni_camera,-0.0112272525515,0.0502554918469,-0.0574041954071,0.129908557896,-0.141388223098,0.681948549539,0.705747343414,0,1305031098465755390,/world,/kinect,1.36450119019,0.595312637329,1.73262515259,-0.291134656989,-0.303374214763,0.616833132197,0.665373266927
1554941723414500788,0,1305031098475798644,/kinect,/openni_camera,-0.0112272525515,0.0502554918469,-0.0574041954071,0.129908557896,-0.141388223098,0.681948549539,0.705747343414,0,1305031098475798644,/world,/kinect,1.36419192505,0.595493469238,1.73218469238,-0.291209750542,-0.303545157409,0.616220158051,0.665830260213
1554941723424518193,0,1305031098485827632,/kinect,/openni_camera,-0.0112272525515,0.0502554918469,-0.0574041954071,0.129908557896,-0.141388223098,0.681948549539,0.705747343414,0,1305031098485827632,/world,/kinect,1.36395410156,0.595633827209,1.73189154053,-0.291176223131,-0.303009650577,0.616075874954,0.666222241478
1554941723434452231,0,1305031098495798627,/kinect,/openni_camera,-0.0112272525515,0.0502554918469,-0.0574041954071,0.129908557896,-0.141388223098,0.681948549539,0.705747343414,0,1305031098495798627,/world,/kinect,1.36373501587,0.595793426514,1.73160620117,-0.290779180457,-0.302153721731,0.616382773115,0.666500467865
1554941723444664681,0,1305031098505832894,/kinect,/openni_camera,-0.0112272525515,0.0502554918469,-0.0574041954071,0.129908557896,-0.141388223098,0.681948549539,0.705747343414,0,1305031098505832894,/world,/kinect,1.36348846436,0.595982322693,1.73113983154,-0.289725020433,-0.301440137902,0.616963112524,0.666745658839
1554941723454593017,0,1305031098515780654,/kinect,/openni_camera,-0.0112272525515,0.0502554918469,-0.0574041954071,0.129908557896,-0.141388223098,0.681948549539,0.705747343414,0,1305031098515780654,/world,/kinect,1.36299267578,0.596027610779,1.73062069702,-0.289157896718,-0.30122698371,0.617074115529,0.666985420377
1554941723464785307,0,1305031098525765883,/kinect,/openni_camera,-0.0112272525515,0.0502554918469,-0.0574041954071,0.129908557896,-0.141388223098,0.681948549539,0.705747343414,0,1305031098525765883,/world,/kinect,1.36238851929,0.596042900085,1.72992880249,-0.289047172451,-0.301203508128,0.617140803886,0.666982313834
1554941723474722316,0,1305031098535833329,/kinect,/openni_camera,-0.0112272525515,0.0502554918469,-0.0574041954071,0.129908557896,-0.141388223098,0.681948549539,0.705747343414,0,1305031098535833329,/world,/kinect,1.36172457886,0.596200271606,1.72910491943,-0.287865987879,-0.300398782925,0.617804105435,0.667241958774
1554941723484731636,0,1305031098545826683,/kinect,/openni_camera,-0.0112272525515,0.0502554918469,-0.0574041954071,0.129908557896,-0.141388223098,0.681948549539,0.705747343414,0,1305031098545826683,/world,/kinect,1.36069006348,0.596266357422,1.72817312622,-0.286912352632,-0.299804747886,0.61760565648,0.668103037066
1554941723494597036,0,1305031098555798175,/kinect,/openni_camera,-0.0112272525515,0.0502554918469,-0.0574041954071,0.129908557896,-0.141388223098,0.681948549539,0.705747343414,0,1305031098555798175,/world,/kinect,1.35980276489,0.596526855469,1.72720162964,-0.287510640451,-0.300635344011,0.617475980895,0.667592266714
1554941723504626797,0,1305031098565796161,/kinect,/openni_camera,-0.0112272525515,0.0502554918469,-0.0574041954071,0.129908557896,-0.141388223098,0.681948549539,0.705747343414,0,1305031098565796161,/world,/kinect,1.35859188843,0.597005760193,1.72580960083,-0.288575704837,-0.30141569749,0.616745407401,0.667456172595
1554941723514812592,0,1305031098575792497,/kinect,/openni_camera,-0.0112272525515,0.0502554918469,-0.0574041954071,0.129908557896,-0.141388223098,0.681948549539,0.705747343414,0,1305031098575792497,/world,/kinect,1.35714733887,0.597273635864,1.72464520264,-0.289848895184,-0.302432498462,0.616066024473,0.667071851696
1554941723524710201,0,1305031098585822049,/kinect,/openni_camera,-0.0112272525515,0.0502554918469,-0.0574041954071,0.129908557896,-0.141388223098,0.681948549539,0.705747343414,0,1305031098585822049,/world,/kinect,1.3556913147,0.597705383301,1.72321496582,-0.291070052371,-0.302025857095,0.615505967023,0.667241343756
1554941723534621725,0,1305031098595777986,/kinect,/openni_camera,-0.0112272525515,0.0502554918469,-0.0574041954071,0.129908557896,-0.141388223098,0.681948549539,0.705747343414,0,1305031098595777986,/world,/kinect,1.35395812988,0.598237693787,1.72182754517,-0.292840964529,-0.30276731472,0.614855755777,0.666729722016
1554941723544696915,0,1305031098605804517,/kinect,/openni_camera,-0.0112272525515,0.0502554918469,-0.0574041954071,0.129908557896,-0.141388223098,0.681948549539,0.705747343414,0,1305031098605804517,/world,/kinect,1.35229788208,0.598595252991,1.72030941772,-0.293956854258,-0.302761102256,0.614892796656,0.666207123511
1554941723554651267,0,1305031098615824207,/kinect,/openni_camera,-0.0112272525515,0.0502554918469,-0.0574041954071,0.129908557896,-0.141388223098,0.681948549539,0.705747343414,0,1305031098615824207,/world,/kinect,1.35075857544,0.598907615662,1.71900546265,-0.293778584506,-0.30160208918,0.614975039871,0.666735347363
1554941723564667896,0,1305031098625822502,/kinect,/openni_camera,-0.0112272525515,0.0502554918469,-0.0574041954071,0.129908557896,-0.141388223098,0.681948549539,0.705747343414,0,1305031098625822502,/world,/kinect,1.34916091919,0.599302879333,1.71758071899,-0.294803027158,-0.301902741552,0.615140630769,0.665993929551
1554941723574785768,0,1305031098635855707,/kinect,/openni_camera,-0.0112272525515,0.0502554918469,-0.0574041954071,0.129908557896,-0.141388223098,0.681948549539,0.705747343414,0,1305031098635855707,/world,/kinect,1.34748895264,0.599427619934,1.7160475769,-0.294619706111,-0.30134276884,0.615627743267,0.665878552109
1554941723584638955,0,1305031098645785506,/kinect,/openni_camera,-0.0112272525515,0.0502554918469,-0.0574041954071,0.129908557896,-0.141388223098,0.681948549539,0.705747343414,0,1305031098645785506,/world,/kinect,1.34604733276,0.599608024597,1.71450546265,-0.294252609231,-0.30118362045,0.61635962033,0.665435682211
1554941723594679285,0,1305031098655887840,/kinect,/openni_camera,-0.0112272525515,0.0502554918469,-0.0574041954071,0.129908557896,-0.141388223098,0.681948549539,0.705747343414,0,1305031098655887840,/world,/kinect,1.34438088989,0.599693252563,1.71275512695,-0.294224672753,-0.300859873785,0.617218964868,0.664797659214
1554941723604691183,0,1305031098665855223,/kinect,/openni_camera,-0.0112272525515,0.0502554918469,-0.0574041954071,0.129908557896,-0.141388223098,0.681948549539,0.705747343414,0,1305031098665855223,/world,/kinect,1.34247644043,0.599785018921,1.71097277832,-0.294810902444,-0.301607800865,0.617873016407,0.663590387102
1554941723606628496,0,1305031098667796178,/openni_depth_frame,/openni_depth_optical_frame,0.0,0.0,0.0,-0.499999841466,0.499601836645,-0.499999841466,0.500398163355
1554941723606685109,0,1305031098667824079,/openni_camera,/openni_depth_frame,0.0,-0.02,0.0,0.0,0.0,0.0,1.0
1554941723611333441,0,1305031098672539436,/openni_rgb_frame,/openni_rgb_optical_frame,0.0,0.0,0.0,-0.499999841466,0.499601836645,-0.499999841466,0.500398163355
1554941723612834238,0,1305031098673982666,/openni_camera,/openni_rgb_frame,0.0,-0.04,0.0,0.0,0.0,0.0,1.0
1554941723614664108,0,1305031098675806047,/kinect,/openni_camera,-0.0112272525515,0.0502554918469,-0.0574041954071,0.129908557896,-0.141388223098,0.681948549539,0.705747343414,0,1305031098675806047,/world,/kinect,1.3405234375,0.599957962036,1.70902096558,-0.295022235976,-0.301697369674,0.618482276812,0.662887811535
1554941723624662024,0,1305031098685824659,/kinect,/openni_camera,-0.0112272525515,0.0502554918469,-0.0574041954071,0.129908557896,-0.141388223098,0.681948549539,0.705747343414,0,1305031098685824659,/world,/kinect,1.33850827026,0.600019775391,1.7069480896,-0.296306241217,-0.302273391946,0.618434519841,0.662096784924
1554941723634674687,0,1305031098695881926,/kinect,/openni_camera,-0.0112272525515,0.0502554918469,-0.0574041954071,0.129908557896,-0.141388223098,0.681948549539,0.705747343414,0,1305031098695881926,/world,/kinect,1.33610983276,0.600158058167,1.70484649658,-0.296981505547,-0.302371405467,0.618432862716,0.661750944715
1554941723644576901,0,1305031098705816565,/kinect,/openni_camera,-0.0112272525515,0.0502554918469,-0.0574041954071,0.129908557896,-0.141388223098,0.681948549539,0.705747343414,0,1305031098705816565,/world,/kinect,1.3338527832,0.600375328064,1.70275656128,-0.298508432185,-0.303451839082,0.617905967994,0.661061201395
1554941723654700824,0,1305031098715830656,/kinect,/openni_camera,-0.0112272525515,0.0502554918469,-0.0574041954071,0.129908557896,-0.141388223098,0.681948549539,0.705747343414,0,1305031098715830656,/world,/kinect,1.33182666016,0.600458206177,1.70055252075,-0.29862164193,-0.302980468894,0.618232811218,0.660920677217
1554941723664615253,0,1305031098725828479,/kinect,/openni_camera,-0.0112272525515,0.0502554918469,-0.0574041954071,0.129908557896,-0.141388223098,0.681948549539,0.705747343414,0,1305031098725828479,/world,/kinect,1.3295329895,0.600602767944,1.69839459229,-0.299341107161,-0.302923287047,0.618455453264,0.660412928444
1554941723674848141,0,1305031098735861904,/kinect,/openni_camera,-0.0112272525515,0.0502554918469,-0.0574041954071,0.129908557896,-0.141388223098,0.681948549539,0.705747343414,0,1305031098735861904,/world,/kinect,1.3271395874,0.600558700562,1.69612203979,-0.300323745816,-0.303960470339,0.618338451191,0.659599302568
1554941723684669667,0,1305031098745856386,/kinect,/openni_camera,-0.0112272525515,0.0502554918469,-0.0574041954071,0.129908557896,-0.141388223098,0.681948549539,0.705747343414,0,1305031098745856386,/world,/kinect,1.32510388184,0.600459068298,1.69395776367,-0.300375822576,-0.304723745238,0.618570401946,0.659005661687
1554941723694832788,0,1305031098755873320,/kinect,/openni_camera,-0.0112272525515,0.0502554918469,-0.0574041954071,0.129908557896,-0.141388223098,0.681948549539,0.705747343414,0,1305031098755873320,/world,/kinect,1.32290664673,0.600345367432,1.69173977661,-0.300047340637,-0.304389695292,0.619030932935,0.658877235034
1554941723704643846,0,1305031098765811178,/kinect,/openni_camera,-0.0112272525515,0.0502554918469,-0.0574041954071,0.129908557896,-0.141388223098,0.681948549539,0.705747343414,0,1305031098765811178,/world,/kinect,1.32046871948,0.600136306763,1.68942233276,-0.299787511376,-0.304549077479,0.619732318185,0.658262228316
1554941723706742688,0,1305031098767906635,/openni_depth_frame,/openni_depth_optical_frame,0.0,0.0,0.0,-0.499999841466,0.499601836645,-0.499999841466,0.500398163355
1554941723706781288,0,1305031098767966108,/openni_camera,/openni_depth_frame,0.0,-0.02,0.0,0.0,0.0,0.0,1.0
1554941723711473989,0,1305031098772663544,/openni_rgb_frame,/openni_rgb_optical_frame,0.0,0.0,0.0,-0.499999841466,0.499601836645,-0.499999841466,0.500398163355
1554941723712947110,0,1305031098774117428,/openni_camera,/openni_rgb_frame,0.0,-0.04,0.0,0.0,0.0,0.0,1.0
1554941723714636598,0,1305031098775810487,/kinect,/openni_camera,-0.0112272525515,0.0502554918469,-0.0574041954071,0.129908557896,-0.141388223098,0.681948549539,0.705747343414,0,1305031098775810487,/world,/kinect,1.3181368103,0.599943077087,1.68678701782,-0.300257140956,-0.305800884421,0.619888447339,0.657320151256
1554941723724578149,0,1305031098785820657,/kinect,/openni_camera,-0.0112272525515,0.0502554918469,-0.0574041954071,0.129908557896,-0.141388223098,0.681948549539,0.705747343414,0,1305031098785820657,/world,/kinect,1.31546868896,0.599521682739,1.68417214966,-0.300572101872,-0.306632075401,0.620160321457,0.656532068982
1554941723734768034,0,1305031098795889227,/kinect,/openni_camera,-0.0112272525515,0.0502554918469,-0.0574041954071,0.129908557896,-0.141388223098,0.681948549539,0.705747343414,0,1305031098795889227,/world,/kinect,1.31297140503,0.599201972961,1.68166482544,-0.300691909869,-0.307293089955,0.619989424166,0.656329525565
1554941723744642876,0,1305031098805821488,/kinect,/openni_camera,-0.0112272525515,0.0502554918469,-0.0574041954071,0.129908557896,-0.141388223098,0.681948549539,0.705747343414,0,1305031098805821488,/world,/kinect,1.31052328491,0.599075294495,1.67904901123,-0.302603237391,-0.309151232685,0.618293729687,0.656178070252
1554941723754667570,0,1305031098815821229,/kinect,/openni_camera,-0.0112272525515,0.0502554918469,-0.0574041954071,0.129908557896,-0.141388223098,0.681948549539,0.705747343414,0,1305031098815821229,/world,/kinect,1.30768374634,0.598665718079,1.67627142334,-0.301743004121,-0.309244287023,0.619522069698,0.655371295957
1554941723764702270,0,1305031098825841616,/kinect,/openni_camera,-0.0112272525515,0.0502554918469,-0.0574041954071,0.129908557896,-0.141388223098,0.681948549539,0.705747343414,0,1305031098825841616,/world,/kinect,1.3053659668,0.598394592285,1.67349005127,-0.303004715539,-0.311073110764,0.618479085115,0.654908606904
1554941723774734122,0,1305031098835849156,/kinect,/openni_camera,-0.0112272525515,0.0502554918469,-0.0574041954071,0.129908557896,-0.141388223098,0.681948549539,0.705747343414,0,1305031098835849156,/world,/kinect,1.3024979248,0.598074714661,1.6706340332,-0.302927330381,-0.311253013246,0.619101560122,0.65427047351
1554941723784667089,0,1305031098845843270,/kinect,/openni_camera,-0.0112272525515,0.0502554918469,-0.0574041954071,0.129908557896,-0.141388223098,0.681948549539,0.705747343414,0,1305031098845843270,/world,/kinect,1.29954992676,0.597849884033,1.6676913147,-0.303205991659,-0.312272528443,0.619903881017,0.652894457705
1554941723794684786,0,1305031098855847515,/kinect,/openni_camera,-0.0112272525515,0.0502554918469,-0.0574041954071,0.129908557896,-0.141388223098,0.681948549539,0.705747343414,0,1305031098855847515,/world,/kinect,1.29648565674,0.597271820068,1.66472720337,-0.303084947101,-0.312284086603,0.621313936304,0.651603527192
1554941723804847072,0,1305031098865830093,/kinect,/openni_camera,-0.0112272525515,0.0502554918469,-0.0574041954071,0.129908557896,-0.141388223098,0.681948549539,0.705747343414,0,1305031098865830093,/world,/kinect,1.29400854492,0.596964683533,1.66169937134,-0.305154374761,-0.314225415097,0.620840431632,0.650154100596
1554941723806804756,0,1305031098868023485,/openni_depth_frame,/openni_depth_optical_frame,0.0,0.0,0.0,-0.499999841466,0.499601836645,-0.499999841466,0.500398163355
1554941723806837040,0,1305031098868069180,/openni_camera,/openni_depth_frame,0.0,-0.02,0.0,0.0,0.0,0.0,1.0
1554941723811543548,0,1305031098872763354,/openni_rgb_frame,/openni_rgb_optical_frame,0.0,0.0,0.0,-0.499999841466,0.499601836645,-0.499999841466,0.500398163355
1554941723813089016,0,1305031098874257917,/openni_camera,/openni_rgb_frame,0.0,-0.04,0.0,0.0,0.0,0.0,1.0
1554941723814619764,0,1305031098875859751,/kinect,/openni_camera,-0.0112272525515,0.0502554918469,-0.0574041954071,0.129908557896,-0.141388223098,0.681948549539,0.705747343414,0,1305031098875859751,/world,/kinect,1.29076763916,0.596571540833,1.65837643433,-0.305915717892,-0.314795773501,0.62163009148,0.648764382422
1554941723824773547,0,1305031098885954632,/kinect,/openni_camera,-0.0112272525515,0.0502554918469,-0.0574041954071,0.129908557896,-0.141388223098,0.681948549539,0.705747343414,0,1305031098885954632,/world,/kinect,1.28751916504,0.596178543091,1.65522680664,-0.306272972252,-0.315441264414,0.622741406486,0.647214659769
1554941723834667709,0,1305031098895847246,/kinect,/openni_camera,-0.0112272525515,0.0502554918469,-0.0574041954071,0.129908557896,-0.141388223098,0.681948549539,0.705747343414,0,1305031098895847246,/world,/kinect,1.28440557861,0.595924705505,1.65187643433,-0.308362088746,-0.3171564182,0.621756817229,0.646330479591
1554941723844678029,0,1305031098905817389,/kinect,/openni_camera,-0.0112272525515,0.0502554918469,-0.0574041954071,0.129908557896,-0.141388223098,0.681948549539,0.705747343414,0,1305031098905817389,/world,/kinect,1.2813137207,0.595641143799,1.64873242188,-0.309130619728,-0.317860278337,0.622051638529,0.645333140637
1554941723854742301,0,1305031098915833373,/kinect,/openni_camera,-0.0112272525515,0.0502554918469,-0.0574041954071,0.129908557896,-0.141388223098,0.681948549539,0.705747343414,0,1305031098915833373,/world,/kinect,1.27774917603,0.595051475525,1.64528942871,-0.31041142042,-0.318500869967,0.622832559763,0.6436470682
1554941723864684854,0,1305031098925858220,/kinect,/openni_camera,-0.0112272525515,0.0502554918469,-0.0574041954071,0.129908557896,-0.141388223098,0.681948549539,0.705747343414,0,1305031098925858220,/world,/kinect,1.27441882324,0.594816589355,1.64170114136,-0.312571518663,-0.319980946352,0.623133759504,0.641572721878
1554941723874812656,0,1305031098935861948,/kinect,/openni_camera,-0.0112272525515,0.0502554918469,-0.0574041954071,0.129908557896,-0.141388223098,0.681948549539,0.705747343414,0,1305031098935861948,/world,/kinect,1.27125317383,0.594605895996,1.63833770752,-0.31515428898,-0.322172928152,0.623176429698,0.639166266298
1554941723884718025,0,1305031098945881025,/kinect,/openni_camera,-0.0112272525515,0.0502554918469,-0.0574041954071,0.129908557896,-0.141388223098,0.681948549539,0.705747343414,0,1305031098945881025,/world,/kinect,1.2678421936,0.594407188416,1.63458959961,-0.317658815583,-0.323900310645,0.622941386389,0.637279761776
1554941723894672172,0,1305031098955860714,/kinect,/openni_camera,-0.0112272525515,0.0502554918469,-0.0574041954071,0.129908557896,-0.141388223098,0.681948549539,0.705747343414,0,1305031098955860714,/world,/kinect,1.26429019165,0.594040740967,1.63100765991,-0.317158958977,-0.32173574876,0.624949093891,0.63665919671
1554941723904784416,0,1305031098965858897,/kinect,/openni_camera,-0.0112272525515,0.0502554918469,-0.0574041954071,0.129908557896,-0.141388223098,0.681948549539,0.705747343414,0,1305031098965858897,/world,/kinect,1.26072570801,0.593777862549,1.62732531738,-0.320592043819,-0.325417778781,0.623383322524,0.634600066098
1554941723906992515,0,1305031098968129798,/openni_depth_frame,/openni_depth_optical_frame,0.0,0.0,0.0,-0.499999841466,0.499601836645,-0.499999841466,0.500398163355
1554941723907032531,0,1305031098968175594,/openni_camera,/openni_depth_frame,0.0,-0.02,0.0,0.0,0.0,0.0,1.0
1554941723911866608,0,1305031098972966031,/openni_rgb_frame,/openni_rgb_optical_frame,0.0,0.0,0.0,-0.499999841466,0.499601836645,-0.499999841466,0.500398163355
1554941723913279934,0,1305031098974402507,/openni_camera,/openni_rgb_frame,0.0,-0.04,0.0,0.0,0.0,0.0,1.0
1554941723914688858,0,1305031098975837345,/kinect,/openni_camera,-0.0112272525515,0.0502554918469,-0.0574041954071,0.129908557896,-0.141388223098,0.681948549539,0.705747343414,0,1305031098975837345,/world,/kinect,1.25726525879,0.59338356781,1.62363217163,-0.321247607894,-0.325477804726,0.623828800326,0.633799495848
1554941723924847084,0,1305031098985831853,/kinect,/openni_camera,-0.0112272525515,0.0502554918469,-0.0574041954071,0.129908557896,-0.141388223098,0.681948549539,0.705747343414,0,1305031098985831853,/world,/kinect,1.25397393799,0.593252067566,1.619900177,-0.323320926207,-0.326590870527,0.623009884937,0.632977618273
1554941723934710501,0,1305031098995843793,/kinect,/openni_camera,-0.0112272525515,0.0502554918469,-0.0574041954071,0.129908557896,-0.141388223098,0.681948549539,0.705747343414,0,1305031098995843793,/world,/kinect,1.25051669312,0.592978416443,1.61616027832,-0.323996052918,-0.326943512914,0.623190451686,0.632272218261
1554941723944986728,0,1305031099005942544,/kinect,/openni_camera,-0.0112272525515,0.0502554918469,-0.0574041954071,0.129908557896,-0.141388223098,0.681948549539,0.705747343414,0,1305031099005942544,/world,/kinect,1.24728137207,0.592715332031,1.61253128052,-0.324405729662,-0.327534183848,0.623455524745,0.631494647355
1554941723954800487,0,1305031099015881732,/kinect,/openni_camera,-0.0112272525515,0.0502554918469,-0.0574041954071,0.129908557896,-0.141388223098,0.681948549539,0.705747343414,0,1305031099015881732,/world,/kinect,1.24409802246,0.59273576355,1.60910852051,-0.325364875881,-0.328686869146,0.622660065658,0.63118704219
1554941723964752897,0,1305031099025885236,/kinect,/openni_camera,-0.0112272525515,0.0502554918469,-0.0574041954071,0.129908557896,-0.141388223098,0.681948549539,0.705747343414,0,1305031099025885236,/world,/kinect,1.24072116089,0.592402153015,1.60522549438,-0.325555946688,-0.327620908071,0.623512343622,0.630801255169
1554941723974729454,0,1305031099035901843,/kinect,/openni_camera,-0.0112272525515,0.0502554918469,-0.0574041954071,0.129908557896,-0.141388223098,0.681948549539,0.705747343414,0,1305031099035901843,/world,/kinect,1.23724655151,0.592410461426,1.60157150269,-0.327669707134,-0.329859955211,0.622134966983,0.629899242602
1554941723984814099,0,1305031099045931142,/kinect,/openni_camera,-0.0112272525515,0.0502554918469,-0.0574041954071,0.129908557896,-0.141388223098,0.681948549539,0.705747343414,0,1305031099045931142,/world,/kinect,1.23377954102,0.592195266724,1.59767715454,-0.328305535671,-0.329814036414,0.621876173169,0.629847760873
1554941723994682211,0,1305031099055864549,/kinect,/openni_camera,-0.0112272525515,0.0502554918469,-0.0574041954071,0.129908557896,-0.141388223098,0.681948549539,0.705747343414,0,1305031099055864549,/world,/kinect,1.23016967773,0.592088623047,1.59393429565,-0.32991719378,-0.331870044505,0.620635231479,0.629149289323
1554941724004936505,0,1305031099065869737,/kinect,/openni_camera,-0.0112272525515,0.0502554918469,-0.0574041954071,0.129908557896,-0.141388223098,0.681948549539,0.705747343414,0,1305031099065869737,/world,/kinect,1.22687109375,0.591900787354,1.59005856323,-0.331561486668,-0.333643410385,0.619112117861,0.628847549715
1554941724007200236,0,1305031099068339896,/openni_depth_frame,/openni_depth_optical_frame,0.0,0.0,0.0,-0.499999841466,0.499601836645,-0.499999841466,0.500398163355
1554941724007240650,0,1305031099068396126,/openni_camera,/openni_depth_frame,0.0,-0.02,0.0,0.0,0.0,0.0,1.0
1554941724011933034,0,1305031099073063518,/openni_rgb_frame,/openni_rgb_optical_frame,0.0,0.0,0.0,-0.499999841466,0.499601836645,-0.499999841466,0.500398163355
1554941724013390504,0,1305031099074543300,/openni_camera,/openni_rgb_frame,0.0,-0.04,0.0,0.0,0.0,0.0,1.0
1554941724014718970,0,1305031099075858572,/kinect,/openni_camera,-0.0112272525515,0.0502554918469,-0.0574041954071,0.129908557896,-0.141388223098,0.681948549539,0.705747343414,0,1305031099075858572,/world,/kinect,1.22336480713,0.591668388367,1.58616287231,-0.333554446099,-0.335616865417,0.618140957347,0.627697783957
1554941724024753917,0,1305031099085874566,/kinect,/openni_camera,-0.0112272525515,0.0502554918469,-0.0574041954071,0.129908557896,-0.141388223098,0.681948549539,0.705747343414,0,1305031099085874566,/world,/kinect,1.2197644043,0.591464332581,1.58232797241,-0.335214760982,-0.337571596582,0.616767500871,0.627115883287
1554941724034802216,0,1305031099095926633,/kinect,/openni_camera,-0.0112272525515,0.0502554918469,-0.0574041954071,0.129908557896,-0.141388223098,0.681948549539,0.705747343414,0,1305031099095926633,/world,/kinect,1.2165637207,0.591174102783,1.57870629883,-0.336156086204,-0.338604247874,0.616696488955,0.62612434032
1554941724044984739,0,1305031099105914236,/kinect,/openni_camera,-0.0112272525515,0.0502554918469,-0.0574041954071,0.129908557896,-0.141388223098,0.681948549539,0.705747343414,0,1305031099105914236,/world,/kinect,1.21340008545,0.591046112061,1.57516070557,-0.336934337234,-0.33952204116,0.616080407632,0.625815441876
1554941724054759205,0,1305031099115869653,/kinect,/openni_camera,-0.0112272525515,0.0502554918469,-0.0574041954071,0.129908557896,-0.141388223098,0.681948549539,0.705747343414,0,1305031099115869653,/world,/kinect,1.21056860352,0.590878570557,1.57169042969,-0.336724972989,-0.339163694631,0.616370557227,0.625836733497
1554941724064899012,0,1305031099125877617,/kinect,/openni_camera,-0.0112272525515,0.0502554918469,-0.0574041954071,0.129908557896,-0.141388223098,0.681948549539,0.705747343414,0,1305031099125877617,/world,/kinect,1.20758135986,0.590685714722,1.5682293396,-0.336475609201,-0.339376804585,0.616425654583,0.625801055683
1554941724074774468,0,1305031099135890727,/kinect,/openni_camera,-0.0112272525515,0.0502554918469,-0.0574041954071,0.129908557896,-0.141388223098,0.681948549539,0.705747343414,0,1305031099135890727,/world,/kinect,1.20474688721,0.590604881287,1.56475598145,-0.335764298805,-0.339073593968,0.616500984835,0.626273078792
1554941724084734342,0,1305031099145886328,/kinect,/openni_camera,-0.0112272525515,0.0502554918469,-0.0574041954071,0.129908557896,-0.141388223098,0.681948549539,0.705747343414,0,1305031099145886328,/world,/kinect,1.20169717407,0.590322425842,1.56130276489,-0.335872232424,-0.340361475625,0.615912118882,0.626095976037
1554941724094666806,0,1305031099155891316,/kinect,/openni_camera,-0.0112272525515,0.0502554918469,-0.0574041954071,0.129908557896,-0.141388223098,0.681948549539,0.705747343414,0,1305031099155891316,/world,/kinect,1.19866668701,0.590216598511,1.55767141724,-0.335652249278,-0.341242668395,0.615527574154,0.626112461366
1554941724106531457,0,1305031099167664571,/kinect,/openni_camera,-0.0112272525515,0.0502554918469,-0.0574041954071,0.129908557896,-0.141388223098,0.681948549539,0.705747343414,0,1305031099167664571,/world,/kinect,1.19547470093,0.590085708618,1.55395675659,-0.336328050316,-0.342593774415,0.614569162129,0.625953427392
1554941724107375053,0,1305031099168481424,/openni_depth_frame,/openni_depth_optical_frame,0.0,0.0,0.0,-0.499999841466,0.499601836645,-0.499999841466,0.500398163355
1554941724107411810,0,1305031099168529624,/openni_camera,/openni_depth_frame,0.0,-0.02,0.0,0.0,0.0,0.0,1.0
1554941724112062459,0,1305031099173158573,/openni_rgb_frame,/openni_rgb_optical_frame,0.0,0.0,0.0,-0.499999841466,0.499601836645,-0.499999841466,0.500398163355
1554941724113457336,0,1305031099174677787,/openni_camera,/openni_rgb_frame,0.0,-0.04,0.0,0.0,0.0,0.0,1.0
1554941724114712198,0,1305031099175901272,/kinect,/openni_camera,-0.0112272525515,0.0502554918469,-0.0574041954071,0.129908557896,-0.141388223098,0.681948549539,0.705747343414,0,1305031099175901272,/world,/kinect,1.19248205566,0.590111610413,1.55035336304,-0.336821623418,-0.34315866749,0.614221293884,0.625720005325
1554941724124798527,0,1305031099185868116,/kinect,/openni_camera,-0.0112272525515,0.0502554918469,-0.0574041954071,0.129908557896,-0.141388223098,0.681948549539,0.705747343414,0,1305031099185868116,/world,/kinect,1.18917810059,0.5902266922,1.54666210938,-0.338104629927,-0.344241261116,0.612893748025,0.625735141253
1554941724134763284,0,1305031099195903083,/kinect,/openni_camera,-0.0112272525515,0.0502554918469,-0.0574041954071,0.129908557896,-0.141388223098,0.681948549539,0.705747343414,0,1305031099195903083,/world,/kinect,1.18584310913,0.590434867859,1.54302200317,-0.340095434525,-0.345834807385,0.611709089431,0.624936293812
1554941724144844932,0,1305031099205908266,/kinect,/openni_camera,-0.0112272525515,0.0502554918469,-0.0574041954071,0.129908557896,-0.141388223098,0.681948549539,0.705747343414,0,1305031099205908266,/world,/kinect,1.18277026367,0.590626167297,1.53935745239,-0.340760369559,-0.346397477017,0.611129853196,0.624829145436
1554941724154958399,0,1305031099215901657,/kinect,/openni_camera,-0.0112272525515,0.0502554918469,-0.0574041954071,0.129908557896,-0.141388223098,0.681948549539,0.705747343414,0,1305031099215901657,/world,/kinect,1.17959307861,0.590728004456,1.53578338623,-0.341602048372,-0.346704212911,0.610818428369,0.62450386457
1554941724164624687,0,1305031099225857799,/kinect,/openni_camera,-0.0112272525515,0.0502554918469,-0.0574041954071,0.129908557896,-0.141388223098,0.681948549539,0.705747343414,0,1305031099225857799,/world,/kinect,1.17673101807,0.590875946045,1.53232485962,-0.342091192748,-0.347708957533,0.610208768868,0.624273461788
1554941724174605075,0,1305031099235887813,/kinect,/openni_camera,-0.0112272525515,0.0502554918469,-0.0574041954071,0.129908557896,-0.141388223098,0.681948549539,0.705747343414,0,1305031099235887813,/world,/kinect,1.17371078491,0.591068725586,1.52880340576,-0.34279171863,-0.348329254057,0.609995734185,0.623751370886
1554941724184740621,0,1305031099245882970,/kinect,/openni_camera,-0.0112272525515,0.0502554918469,-0.0574041954071,0.129908557896,-0.141388223098,0.681948549539,0.705747343414,0,1305031099245882970,/world,/kinect,1.17082229614,0.591250648499,1.52544241333,-0.343546821551,-0.348649242188,0.609826680871,0.623322313591
1554941724194849821,0,1305031099255938878,/kinect,/openni_camera,-0.0112272525515,0.0502554918469,-0.0574041954071,0.129908557896,-0.141388223098,0.681948549539,0.705747343414,0,1305031099255938878,/world,/kinect,1.16786071777,0.59157749939,1.52195178223,-0.344742999593,-0.349589634209,0.609738227678,0.622220737032
1554941724204835151,0,1305031099265925782,/kinect,/openni_camera,-0.0112272525515,0.0502554918469,-0.0574041954071,0.129908557896,-0.141388223098,0.681948549539,0.705747343414,0,1305031099265925782,/world,/kinect,1.16493954468,0.591900466919,1.51862155151,-0.345859242289,-0.349147082988,0.610125586546,0.621469603123
1554941724207486150,0,1305031099268589010,/openni_depth_frame,/openni_depth_optical_frame,0.0,0.0,0.0,-0.499999841466,0.499601836645,-0.499999841466,0.500398163355
1554941724207512653,0,1305031099268643195,/openni_camera,/openni_depth_frame,0.0,-0.02,0.0,0.0,0.0,0.0,1.0
1554941724212139895,0,1305031099273254462,/openni_rgb_frame,/openni_rgb_optical_frame,0.0,0.0,0.0,-0.499999841466,0.499601836645,-0.499999841466,0.500398163355
1554941724213583346,0,1305031099274811768,/openni_camera,/openni_rgb_frame,0.0,-0.04,0.0,0.0,0.0,0.0,1.0
1554941724214702027,0,1305031099275846248,/kinect,/openni_camera,-0.0112272525515,0.0502554918469,-0.0574041954071,0.129908557896,-0.141388223098,0.681948549539,0.705747343414,0,1305031099275846248,/world,/kinect,1.16205462646,0.592312515259,1.51533908081,-0.34726405036,-0.349406937786,0.610179078413,0.620486876108
1554941724224968740,0,1305031099285894109,/kinect,/openni_camera,-0.0112272525515,0.0502554918469,-0.0574041954071,0.129908557896,-0.141388223098,0.681948549539,0.705747343414,0,1305031099285894109,/world,/kinect,1.15918441772,0.592634017944,1.51200057983,-0.349481804717,-0.349997306942,0.609741571258,0.619338009156
1554941724234760241,0,1305031099295859217,/kinect,/openni_camera,-0.0112272525515,0.0502554918469,-0.0574041954071,0.129908557896,-0.141388223098,0.681948549539,0.705747343414,0,1305031099295859217,/world,/kinect,1.1562088623,0.592976402283,1.50859136963,-0.351188350426,-0.351321777542,0.60893903085,0.618411681534
1554941724245037808,0,1305031099305958223,/kinect,/openni_camera,-0.0112272525515,0.0502554918469,-0.0574041954071,0.129908557896,-0.141388223098,0.681948549539,0.705747343414,0,1305031099305958223,/world,/kinect,1.15333145142,0.593225982666,1.50538943481,-0.352022859147,-0.352226359993,0.60831515604,0.618036543334
1554941724254798235,0,1305031099315864006,/kinect,/openni_camera,-0.0112272525515,0.0502554918469,-0.0574041954071,0.129908557896,-0.141388223098,0.681948549539,0.705747343414,0,1305031099315864006,/world,/kinect,1.15053823853,0.593334350586,1.50223416138,-0.353024895274,-0.353651192763,0.607466951208,0.617485352348
1554941724264816648,0,1305031099325885649,/kinect,/openni_camera,-0.0112272525515,0.0502554918469,-0.0574041954071,0.129908557896,-0.141388223098,0.681948549539,0.705747343414,0,1305031099325885649,/world,/kinect,1.14786273193,0.593662086487,1.49908010864,-0.353695509643,-0.354358569019,0.607143392767,0.617014093551
1554941724274798017,0,1305031099335922307,/kinect,/openni_camera,-0.0112272525515,0.0502554918469,-0.0574041954071,0.129908557896,-0.141388223098,0.681948549539,0.705747343414,0,1305031099335922307,/world,/kinect,1.14524432373,0.593986450195,1.49614154053,-0.35342331382,-0.353933136714,0.607141263608,0.617416214567
1554941724284884148,0,1305031099345860134,/kinect,/openni_camera,-0.0112272525515,0.0502554918469,-0.0574041954071,0.129908557896,-0.141388223098,0.681948549539,0.705747343414,0,1305031099345860134,/world,/kinect,1.14257531738,0.594378768921,1.49321334839,-0.354346232232,-0.354822957126,0.606289361383,0.617213599229
1554941724294755209,0,1305031099355844823,/kinect,/openni_camera,-0.0112272525515,0.0502554918469,-0.0574041954071,0.129908557896,-0.141388223098,0.681948549539,0.705747343414,0,1305031099355844823,/world,/kinect,1.14006518555,0.594711174011,1.49030926514,-0.354559175139,-0.355429061927,0.605869483388,0.617154877127
1554941724304928267,0,1305031099365856307,/kinect,/openni_camera,-0.0112272525515,0.0502554918469,-0.0574041954071,0.129908557896,-0.141388223098,0.681948549539,0.705747343414,0,1305031099365856307,/world,/kinect,1.13733514404,0.59510333252,1.48737237549,-0.354342412897,-0.355175789011,0.605907152001,0.61738815706
1554941724307646809,0,1305031099368731088,/openni_depth_frame,/openni_depth_optical_frame,0.0,0.0,0.0,-0.499999841466,0.499601836645,-0.499999841466,0.500398163355
1554941724307687319,0,1305031099368779556,/openni_camera,/openni_depth_frame,0.0,-0.02,0.0,0.0,0.0,0.0,1.0
1554941724312163725,0,1305031099373385159,/openni_rgb_frame,/openni_rgb_optical_frame,0.0,0.0,0.0,-0.499999841466,0.499601836645,-0.499999841466,0.500398163355
1554941724313675971,0,1305031099374932720,/openni_camera,/openni_rgb_frame,0.0,-0.04,0.0,0.0,0.0,0.0,1.0
1554941724314585063,0,1305031099375841717,/kinect,/openni_camera,-0.0112272525515,0.0502554918469,-0.0574041954071,0.129908557896,-0.141388223098,0.681948549539,0.705747343414,0,1305031099375841717,/world,/kinect,1.13466589355,0.595434700012,1.48443722534,-0.355724728714,-0.356757372475,0.604559538539,0.617002316792
1554941724324710810,0,1305031099385957715,/kinect,/openni_camera,-0.0112272525515,0.0502554918469,-0.0574041954071,0.129908557896,-0.141388223098,0.681948549539,0.705747343414,0,1305031099385957715,/world,/kinect,1.13209649658,0.595800834656,1.48168539429,-0.356430165876,-0.357656276962,0.603894542052,0.616725957362
1554941724334641864,0,1305031099395854144,/kinect,/openni_camera,-0.0112272525515,0.0502554918469,-0.0574041954071,0.129908557896,-0.141388223098,0.681948549539,0.705747343414,0,1305031099395854144,/world,/kinect,1.12942623901,0.596132476807,1.47898165894,-0.356586940268,-0.358382380303,0.603487792157,0.616611959206
1554941724344589561,0,1305031099405908837,/kinect,/openni_camera,-0.0112272525515,0.0502554918469,-0.0574041954071,0.129908557896,-0.141388223098,0.681948549539,0.705747343414,0,1305031099405908837,/world,/kinect,1.12700405884,0.596427497864,1.4762406311,-0.356873695744,-0.358578206061,0.60366877053,0.61615489198
1554941724354533495,0,1305031099415944789,/kinect,/openni_camera,-0.0112272525515,0.0502554918469,-0.0574041954071,0.129908557896,-0.141388223098,0.681948549539,0.705747343414,0,1305031099415944789,/world,/kinect,1.1244211731,0.597029151917,1.47348794556,-0.358010778248,-0.359476810023,0.603175825824,0.615454002226
1554941724364415926,0,1305031099425856606,/kinect,/openni_camera,-0.0112272525515,0.0502554918469,-0.0574041954071,0.129908557896,-0.141388223098,0.681948549539,0.705747343414,0,1305031099425856606,/world,/kinect,1.12204928589,0.597453453064,1.47094506836,-0.358879178881,-0.360479051514,0.602957322848,0.614575508143
1554941724374436641,0,1305031099435876487,/kinect,/openni_camera,-0.0112272525515,0.0502554918469,-0.0574041954071,0.129908557896,-0.141388223098,0.681948549539,0.705747343414,0,1305031099435876487,/world,/kinect,1.11965408325,0.598026664734,1.46828253174,-0.359883114808,-0.360715530067,0.602691723328,0.614110036294
1554941724384650347,0,1305031099445972373,/kinect,/openni_camera,-0.0112272525515,0.0502554918469,-0.0574041954071,0.129908557896,-0.141388223098,0.681948549539,0.705747343414,0,1305031099445972373,/world,/kinect,1.11712646484,0.598501838684,1.4657364502,-0.36106284278,-0.361343992997,0.602306549738,0.613425596492
1554941724394599368,0,1305031099455900877,/kinect,/openni_camera,-0.0112272525515,0.0502554918469,-0.0574041954071,0.129908557896,-0.141388223098,0.681948549539,0.705747343414,0,1305031099455900877,/world,/kinect,1.11475506592,0.598979492188,1.46318798828,-0.361228420751,-0.361186049893,0.602426283489,0.613303545046
1554941724404701745,0,1305031099465862411,/kinect,/openni_camera,-0.0112272525515,0.0502554918469,-0.0574041954071,0.129908557896,-0.141388223098,0.681948549539,0.705747343414,0,1305031099465862411,/world,/kinect,1.11244238281,0.599379005432,1.46061776733,-0.362527938929,-0.361586241981,0.601864401876,0.612852449502
1554941724407601144,0,1305031099468835447,/openni_depth_frame,/openni_depth_optical_frame,0.0,0.0,0.0,-0.499999841466,0.499601836645,-0.499999841466,0.500398163355
1554941724407611645,0,1305031099468888493,/openni_camera,/openni_depth_frame,0.0,-0.02,0.0,0.0,0.0,0.0,1.0
1554941724412255725,0,1305031099473519612,/openni_rgb_frame,/openni_rgb_optical_frame,0.0,0.0,0.0,-0.499999841466,0.499601836645,-0.499999841466,0.500398163355
1554941724413763440,0,1305031099475049079,/openni_camera,/openni_rgb_frame,0.0,-0.04,0.0,0.0,0.0,0.0,1.0
1554941724414544436,0,1305031099475860212,/kinect,/openni_camera,-0.0112272525515,0.0502554918469,-0.0574041954071,0.129908557896,-0.141388223098,0.681948549539,0.705747343414,0,1305031099475860212,/world,/kinect,1.1101317749,0.599834037781,1.45825888062,-0.364065004378,-0.36325508009,0.600954550871,0.611846424493
1554941724424649852,0,1305031099485849451,/kinect,/openni_camera,-0.0112272525515,0.0502554918469,-0.0574041954071,0.129908557896,-0.141388223098,0.681948549539,0.705747343414,0,1305031099485849451,/world,/kinect,1.10767843628,0.60021245575,1.45584689331,-0.365125314943,-0.363953362499,0.601231001183,0.610526606734
1554941724434635934,0,1305031099495900394,/kinect,/openni_camera,-0.0112272525515,0.0502554918469,-0.0574041954071,0.129908557896,-0.141388223098,0.681948549539,0.705747343414,0,1305031099495900394,/world,/kinect,1.10531228638,0.60075213623,1.4532795105,-0.36656590593,-0.364021091042,0.601373805585,0.609481441754
1554941724444869044,0,1305031099505887052,/kinect,/openni_camera,-0.0112272525515,0.0502554918469,-0.0574041954071,0.129908557896,-0.141388223098,0.681948549539,0.705747343414,0,1305031099505887052,/world,/kinect,1.1031232605,0.601445663452,1.45091433716,-0.367615007202,-0.364349361052,0.601652936383,0.608376933917
1554941724455622493,0,1305031099516576682,/kinect,/openni_camera,-0.0112272525515,0.0502554918469,-0.0574041954071,0.129908557896,-0.141388223098,0.681948549539,0.705747343414,0,1305031099516576682,/world,/kinect,1.10098071289,0.601971160889,1.44855117798,-0.369282731471,-0.36420875068,0.601322638415,0.607777372641
1554941724464890760,0,1305031099525893894,/kinect,/openni_camera,-0.0112272525515,0.0502554918469,-0.0574041954071,0.129908557896,-0.141388223098,0.681948549539,0.705747343414,0,1305031099525893894,/world,/kinect,1.09868145752,0.602601280212,1.44608499146,-0.370865122021,-0.364600335106,0.600975320389,0.606922005856
1554941724474830654,0,1305031099535905525,/kinect,/openni_camera,-0.0112272525515,0.0502554918469,-0.0574041954071,0.129908557896,-0.141388223098,0.681948549539,0.705747343414,0,1305031099535905525,/world,/kinect,1.09640875244,0.603167747498,1.44381729126,-0.371551264372,-0.364311876235,0.600943435703,0.606707097259
1554941724485027215,0,1305031099545954577,/kinect,/openni_camera,-0.0112272525515,0.0502554918469,-0.0574041954071,0.129908557896,-0.141388223098,0.681948549539,0.705747343414,0,1305031099545954577,/world,/kinect,1.09437490845,0.603624961853,1.44153341675,-0.373817856166,-0.365526450399,0.5995082413,0.606003707154
1554941724494724632,0,1305031099555874497,/kinect,/openni_camera,-0.0112272525515,0.0502554918469,-0.0574041954071,0.129908557896,-0.141388223098,0.681948549539,0.705747343414,0,1305031099555874497,/world,/kinect,1.0919602356,0.604154441833,1.43907553101,-0.374943757513,-0.366222281354,0.598773884639,0.605613948334
1554941724504959546,0,1305031099565908881,/kinect,/openni_camera,-0.0112272525515,0.0502554918469,-0.0574041954071,0.129908557896,-0.141388223098,0.681948549539,0.705747343414,0,1305031099565908881,/world,/kinect,1.08965887451,0.604697189331,1.43660174561,-0.376412057236,-0.366667809272,0.597975381874,0.605222375235
1554941724507894994,0,1305031099568991122,/openni_depth_frame,/openni_depth_optical_frame,0.0,0.0,0.0,-0.499999841466,0.499601836645,-0.499999841466,0.500398163355
1554941724507933273,0,1305031099569036970,/openni_camera,/openni_depth_frame,0.0,-0.02,0.0,0.0,0.0,0.0,1.0
1554941724512485558,0,1305031099573674432,/openni_rgb_frame,/openni_rgb_optical_frame,0.0,0.0,0.0,-0.499999841466,0.499601836645,-0.499999841466,0.500398163355
1554941724513860728,0,1305031099575167245,/openni_camera,/openni_rgb_frame,0.0,-0.04,0.0,0.0,0.0,0.0,1.0
1554941724514604700,0,1305031099575869819,/kinect,/openni_camera,-0.0112272525515,0.0502554918469,-0.0574041954071,0.129908557896,-0.141388223098,0.681948549539,0.705747343414,0,1305031099575869819,/world,/kinect,1.08726831055,0.605209259033,1.43412948608,-0.378336249698,-0.367342985174,0.597091327276,0.604485533574
1554941724524786161,0,1305031099585915344,/kinect,/openni_camera,-0.0112272525515,0.0502554918469,-0.0574041954071,0.129908557896,-0.141388223098,0.681948549539,0.705747343414,0,1305031099585915344,/world,/kinect,1.08490019226,0.605947349548,1.43169024658,-0.38178955872,-0.368786614996,0.595580738284,0.60292350231
1554941724534966757,0,1305031099595936933,/kinect,/openni_camera,-0.0112272525515,0.0502554918469,-0.0574041954071,0.129908557896,-0.141388223098,0.681948549539,0.705747343414,0,1305031099595936933,/world,/kinect,1.08257728577,0.606590003967,1.42922915649,-0.384140564007,-0.369248406248,0.595208165301,0.601513824884
1554941724544968734,0,1305031099605914690,/kinect,/openni_camera,-0.0112272525515,0.0502554918469,-0.0574041954071,0.129908557896,-0.141388223098,0.681948549539,0.705747343414,0,1305031099605914690,/world,/kinect,1.0803250885,0.607312690735,1.42704498291,-0.386786872197,-0.369684897065,0.594575223416,0.600174388055
1554941724554818667,0,1305031099615888662,/kinect,/openni_camera,-0.0112272525515,0.0502554918469,-0.0574041954071,0.129908557896,-0.141388223098,0.681948549539,0.705747343414,0,1305031099615888662,/world,/kinect,1.07805523682,0.60819442749,1.42463912964,-0.389267563823,-0.369611158857,0.594103696373,0.599081925082
1554941724564859852,0,1305031099625889350,/kinect,/openni_camera,-0.0112272525515,0.0502554918469,-0.0574041954071,0.129908557896,-0.141388223098,0.681948549539,0.705747343414,0,1305031099625889350,/world,/kinect,1.07598927307,0.609020446777,1.42249676514,-0.391515230187,-0.369354024396,0.593736750667,0.598138863561
1554941724574742868,0,1305031099635862189,/kinect,/openni_camera,-0.0112272525515,0.0502554918469,-0.0574041954071,0.129908557896,-0.141388223098,0.681948549539,0.705747343414,0,1305031099635862189,/world,/kinect,1.07386621094,0.609906761169,1.42013394165,-0.394188643717,-0.370026423546,0.593026791277,0.596669911986
1554941724584924682,0,1305031099645860398,/kinect,/openni_camera,-0.0112272525515,0.0502554918469,-0.0574041954071,0.129908557896,-0.141388223098,0.681948549539,0.705747343414,0,1305031099645860398,/world,/kinect,1.07162680054,0.610817054749,1.41791793823,-0.396918740261,-0.369927725056,0.592291073342,0.595651136408
1554941724594735938,0,1305031099655827012,/kinect,/openni_camera,-0.0112272525515,0.0502554918469,-0.0574041954071,0.129908557896,-0.141388223098,0.681948549539,0.705747343414,0,1305031099655827012,/world,/kinect,1.06962405396,0.611635871887,1.41552807617,-0.400331046328,-0.369480058212,0.591498348022,0.594431866758
1554941724604887029,0,1305031099665854866,/kinect,/openni_camera,-0.0112272525515,0.0502554918469,-0.0574041954071,0.129908557896,-0.141388223098,0.681948549539,0.705747343414,0,1305031099665854866,/world,/kinect,1.06736961365,0.612653160095,1.41341317749,-0.403095494034,-0.369350487992,0.590886598317,0.593251437115
1554941724607984222,0,1305031099669112668,/openni_depth_frame,/openni_depth_optical_frame,0.0,0.0,0.0,-0.499999841466,0.499601836645,-0.499999841466,0.500398163355
1554941724608027747,0,1305031099669139977,/openni_camera,/openni_depth_frame,0.0,-0.02,0.0,0.0,0.0,0.0,1.0
1554941724612782958,0,1305031099673802577,/openni_rgb_frame,/openni_rgb_optical_frame,0.0,0.0,0.0,-0.499999841466,0.499601836645,-0.499999841466,0.500398163355
1554941724614012112,0,1305031099675282467,/openni_camera,/openni_rgb_frame,0.0,-0.04,0.0,0.0,0.0,0.0,1.0
1554941724614697724,0,1305031099675874839,/kinect,/openni_camera,-0.0112272525515,0.0502554918469,-0.0574041954071,0.129908557896,-0.141388223098,0.681948549539,0.705747343414,0,1305031099675874839,/world,/kinect,1.06555247498,0.613544769287,1.41129864502,-0.406071694923,-0.369441504661,0.590614520626,0.591433209451
1554941724624946878,0,1305031099685873690,/kinect,/openni_camera,-0.0112272525515,0.0502554918469,-0.0574041954071,0.129908557896,-0.141388223098,0.681948549539,0.705747343414,0,1305031099685873690,/world,/kinect,1.06380532837,0.614399147034,1.40926318359,-0.408786797019,-0.369286118449,0.58996840398,0.590303650344
1554941724634834258,0,1305031099695950264,/kinect,/openni_camera,-0.0112272525515,0.0502554918469,-0.0574041954071,0.129908557896,-0.141388223098,0.681948549539,0.705747343414,0,1305031099695950264,/world,/kinect,1.06217134094,0.615215934753,1.40756921387,-0.410438798543,-0.368861136643,0.58974853787,0.589642363307
1554941724644799819,0,1305031099705888117,/kinect,/openni_camera,-0.0112272525515,0.0502554918469,-0.0574041954071,0.129908557896,-0.141388223098,0.681948549539,0.705747343414,0,1305031099705888117,/world,/kinect,1.06067889404,0.616076423645,1.40566333008,-0.412177126267,-0.368313828746,0.590053054773,0.588466084571
1554941724654789581,0,1305031099715893510,/kinect,/openni_camera,-0.0112272525515,0.0502554918469,-0.0574041954071,0.129908557896,-0.141388223098,0.681948549539,0.705747343414,0,1305031099715893510,/world,/kinect,1.05904316711,0.616822532654,1.40380163574,-0.413771870679,-0.367795752345,0.589436614369,0.588288705682
1554941724664693244,0,1305031099725885247,/kinect,/openni_camera,-0.0112272525515,0.0502554918469,-0.0574041954071,0.129908557896,-0.141388223098,0.681948549539,0.705747343414,0,1305031099725885247,/world,/kinect,1.05763427734,0.617542503357,1.4021734314,-0.415181011591,-0.367582270354,0.589123845221,0.587742373092
1554941724674698965,0,1305031099735872224,/kinect,/openni_camera,-0.0112272525515,0.0502554918469,-0.0574041954071,0.129908557896,-0.141388223098,0.681948549539,0.705747343414,0,1305031099735872224,/world,/kinect,1.05603465271,0.61825667572,1.40020892334,-0.417063924117,-0.367726394409,0.588291463916,0.587152565811
1554941724684683458,0,1305031099745882147,/kinect,/openni_camera,-0.0112272525515,0.0502554918469,-0.0574041954071,0.129908557896,-0.141388223098,0.681948549539,0.705747343414,0,1305031099745882147,/world,/kinect,1.05444192505,0.618966705322,1.39844186401,-0.419167075689,-0.368446013076,0.587203047342,0.586292656698
1554941724694608740,0,1305031099755845724,/kinect,/openni_camera,-0.0112272525515,0.0502554918469,-0.0574041954071,0.129908557896,-0.141388223098,0.681948549539,0.705747343414,0,1305031099755845724,/world,/kinect,1.05303930664,0.619638320923,1.39668185425,-0.420413709007,-0.36917366856,0.586185723342,0.585960249053
1554941724704879046,0,1305031099765848546,/kinect,/openni_camera,-0.0112272525515,0.0502554918469,-0.0574041954071,0.129908557896,-0.141388223098,0.681948549539,0.705747343414,0,1305031099765848546,/world,/kinect,1.05152355957,0.620220787048,1.39504373169,-0.423083400198,-0.37037887593,0.583846608052,0.585613407469
1554941724708315008,0,1305031099769252196,/openni_depth_frame,/openni_depth_optical_frame,0.0,0.0,0.0,-0.499999841466,0.499601836645,-0.499999841466,0.500398163355
1554941724708357732,0,1305031099769252450,/openni_camera,/openni_depth_frame,0.0,-0.02,0.0,0.0,0.0,0.0,1.0
1554941724712898650,0,1305031099774023745,/openni_rgb_frame,/openni_rgb_optical_frame,0.0,0.0,0.0,-0.499999841466,0.499601836645,-0.499999841466,0.500398163355
1554941724714380830,0,1305031099775390570,/openni_camera,/openni_rgb_frame,0.0,-0.04,0.0,0.0,0.0,0.0,1.0
1554941724714701359,0,1305031099775873465,/kinect,/openni_camera,-0.0112272525515,0.0502554918469,-0.0574041954071,0.129908557896,-0.141388223098,0.681948549539,0.705747343414,0,1305031099775873465,/world,/kinect,1.05043629456,0.620646125793,1.39336233521,-0.425098297827,-0.371508450035,0.582301280249,0.584977031821
1554941724724787175,0,1305031099785915217,/kinect,/openni_camera,-0.0112272525515,0.0502554918469,-0.0574041954071,0.129908557896,-0.141388223098,0.681948549539,0.705747343414,0,1305031099785915217,/world,/kinect,1.04928796387,0.621101005554,1.39207443237,-0.426475649795,-0.372400121313,0.5806471104,0.585051795111
1554941724734944015,0,1305031099795890507,/kinect,/openni_camera,-0.0112272525515,0.0502554918469,-0.0574041954071,0.129908557896,-0.141388223098,0.681948549539,0.705747343414,0,1305031099795890507,/world,/kinect,1.04848020935,0.621512367249,1.39114956665,-0.426285963709,-0.372562751193,0.579509500047,0.586213282794
1554941724744919907,0,1305031099805950160,/kinect,/openni_camera,-0.0112272525515,0.0502554918469,-0.0574041954071,0.129908557896,-0.141388223098,0.681948549539,0.705747343414,0,1305031099805950160,/world,/kinect,1.04761340332,0.621866096497,1.39000994873,-0.428405044526,-0.37436052052,0.577424119831,0.585580655706
1554941724754739297,0,1305031099815837640,/kinect,/openni_camera,-0.0112272525515,0.0502554918469,-0.0574041954071,0.129908557896,-0.141388223098,0.681948549539,0.705747343414,0,1305031099815837640,/world,/kinect,1.04708641052,0.621966720581,1.3893404541,-0.42877514631,-0.374667425396,0.576919296405,0.585611065205
1554941724764908729,0,1305031099825865137,/kinect,/openni_camera,-0.0112272525515,0.0502554918469,-0.0574041954071,0.129908557896,-0.141388223098,0.681948549539,0.705747343414,0,1305031099825865137,/world,/kinect,1.04675839233,0.621995681763,1.38885214233,-0.428507822641,-0.375063865415,0.576680117437,0.585788515548
1554941724774880060,0,1305031099835868713,/kinect,/openni_camera,-0.0112272525515,0.0502554918469,-0.0574041954071,0.129908557896,-0.141388223098,0.681948549539,0.705747343414,0,1305031099835868713,/world,/kinect,1.04660041809,0.621990768433,1.388584198,-0.428200919076,-0.375572368514,0.576463349462,0.585900482709
1554941724784814830,0,1305031099845891937,/kinect,/openni_camera,-0.0112272525515,0.0502554918469,-0.0574041954071,0.129908557896,-0.141388223098,0.681948549539,0.705747343414,0,1305031099845891937,/world,/kinect,1.0466089325,0.621950523376,1.38862051392,-0.427683150026,-0.375958991455,0.576433064956,0.586060476021
1554941724794793349,0,1305031099855874093,/kinect,/openni_camera,-0.0112272525515,0.0502554918469,-0.0574041954071,0.129908557896,-0.141388223098,0.681948549539,0.705747343414,0,1305031099855874093,/world,/kinect,1.04672438049,0.62189679718,1.38883337402,-0.427376782244,-0.376488863585,0.576330252715,0.586044931213
1554941724804815595,0,1305031099865877531,/kinect,/openni_camera,-0.0112272525515,0.0502554918469,-0.0574041954071,0.129908557896,-0.141388223098,0.681948549539,0.705747343414,0,1305031099865877531,/world,/kinect,1.04686988831,0.621742782593,1.38918682861,-0.42738440742,-0.377221338968,0.576216324663,0.585680268502
1554941724808157066,0,1305031099869392075,/openni_camera,/openni_depth_frame,0.0,-0.02,0.0,0.0,0.0,0.0,1.0
1554941724808185530,0,1305031099869392249,/openni_depth_frame,/openni_depth_optical_frame,0.0,0.0,0.0,-0.499999841466,0.499601836645,-0.499999841466,0.500398163355
1554941724812997470,0,1305031099874121860,/openni_rgb_frame,/openni_rgb_optical_frame,0.0,0.0,0.0,-0.499999841466,0.499601836645,-0.499999841466,0.500398163355
1554941724814384582,0,1305031099875553049,/openni_camera,/openni_rgb_frame,0.0,-0.04,0.0,0.0,0.0,0.0,1.0
1554941724814606516,0,1305031099875913161,/kinect,/openni_camera,-0.0112272525515,0.0502554918469,-0.0574041954071,0.129908557896,-0.141388223098,0.681948549539,0.705747343414,0,1305031099875913161,/world,/kinect,1.04721434021,0.62177532196,1.38959042358,-0.428396515299,-0.378040009707,0.575702289419,0.584917986301
1554941724824766051,0,1305031099885860012,/kinect,/openni_camera,-0.0112272525515,0.0502554918469,-0.0574041954071,0.129908557896,-0.141388223098,0.681948549539,0.705747343414,0,1305031099885860012,/world,/kinect,1.04759318542,0.621750679016,1.39019647217,-0.428738246707,-0.378585625496,0.575719905843,0.58429703918
1554941724834805087,0,1305031099895866557,/kinect,/openni_camera,-0.0112272525515,0.0502554918469,-0.0574041954071,0.129908557896,-0.141388223098,0.681948549539,0.705747343414,0,1305031099895866557,/world,/kinect,1.04821566772,0.621592384338,1.39123321533,-0.428764656755,-0.378843488443,0.575511160592,0.584316168198
1554941724844941082,0,1305031099905884754,/kinect,/openni_camera,-0.0112272525515,0.0502554918469,-0.0574041954071,0.129908557896,-0.141388223098,0.681948549539,0.705747343414,0,1305031099905884754,/world,/kinect,1.04911392212,0.621419570923,1.39255014038,-0.429385033366,-0.378980681278,0.575364153542,0.583916284375
1554941724854890541,0,1305031099915953774,/kinect,/openni_camera,-0.0112272525515,0.0502554918469,-0.0574041954071,0.129908557896,-0.141388223098,0.681948549539,0.705747343414,0,1305031099915953774,/world,/kinect,1.0501937561,0.62112184906,1.39413702393,-0.428603424873,-0.377994842049,0.576473525314,0.584035339842
1554941724864968490,0,1305031099925920762,/kinect,/openni_camera,-0.0112272525515,0.0502554918469,-0.0574041954071,0.129908557896,-0.141388223098,0.681948549539,0.705747343414,0,1305031099925920762,/world,/kinect,1.05150712585,0.621024810791,1.39624169922,-0.427659667427,-0.377150096734,0.577738835258,0.584022988952
1554941724874782447,0,1305031099935842955,/kinect,/openni_camera,-0.0112272525515,0.0502554918469,-0.0574041954071,0.129908557896,-0.141388223098,0.681948549539,0.705747343414,0,1305031099935842955,/world,/kinect,1.05318244934,0.620870071411,1.39839990234,-0.42626557344,-0.375851948274,0.579888766059,0.583748227301
1554941724884970061,0,1305031099945879457,/kinect,/openni_camera,-0.0112272525515,0.0502554918469,-0.0574041954071,0.129908557896,-0.141388223098,0.681948549539,0.705747343414,0,1305031099945879457,/world,/kinect,1.0549803772,0.620625312805,1.40081866455,-0.425357849364,-0.374144065619,0.581846219689,0.583559675423
1554941724895017245,0,1305031099955957627,/kinect,/openni_camera,-0.0112272525515,0.0502554918469,-0.0574041954071,0.129908557896,-0.141388223098,0.681948549539,0.705747343414,0,1305031099955957627,/world,/kinect,1.0566622467,0.620229721069,1.40347399902,-0.424765051008,-0.372979784444,0.583707057738,0.582878034056
1554941724904954484,0,1305031099965880015,/kinect,/openni_camera,-0.0112272525515,0.0502554918469,-0.0574041954071,0.129908557896,-0.141388223098,0.681948549539,0.705747343414,0,1305031099965880015,/world,/kinect,1.05841122437,0.619785064697,1.40609744263,-0.42444094799,-0.371821997801,0.58530994786,0.582246123694
1554941724908397932,0,1305031099969560627,/openni_depth_frame,/openni_depth_optical_frame,0.0,0.0,0.0,-0.499999841466,0.499601836645,-0.499999841466,0.500398163355
1554941724908434583,0,1305031099969560633,/openni_camera,/openni_depth_frame,0.0,-0.02,0.0,0.0,0.0,0.0,1.0
1554941724913047546,0,1305031099974251713,/openni_rgb_frame,/openni_rgb_optical_frame,0.0,0.0,0.0,-0.499999841466,0.499601836645,-0.499999841466,0.500398163355
1554941724914429408,0,1305031099975684751,/openni_camera,/openni_rgb_frame,0.0,-0.04,0.0,0.0,0.0,0.0,1.0
1554941724914467035,0,1305031099975900172,/kinect,/openni_camera,-0.0112272525515,0.0502554918469,-0.0574041954071,0.129908557896,-0.141388223098,0.681948549539,0.705747343414,0,1305031099975900172,/world,/kinect,1.06031968689,0.619458892822,1.40894158936,-0.424448622675,-0.371368610022,0.587004937715,0.580821767239
1554941724924793803,0,1305031099985907308,/kinect,/openni_camera,-0.0112272525515,0.0502554918469,-0.0574041954071,0.129908557896,-0.141388223098,0.681948549539,0.705747343414,0,1305031099985907308,/world,/kinect,1.06222459412,0.619014671326,1.41167401123,-0.423983175666,-0.370420052983,0.588739748381,0.580010999702
1554941724934626122,0,1305031099995859273,/kinect,/openni_camera,-0.0112272525515,0.0502554918469,-0.0574041954071,0.129908557896,-0.141388223098,0.681948549539,0.705747343414,0,1305031099995859273,/world,/kinect,1.06415374756,0.618582061768,1.41472640991,-0.423966176655,-0.370079078505,0.589712297157,0.579252590229
1554941724944954122,0,1305031100005872420,/kinect,/openni_camera,-0.0112272525515,0.0502554918469,-0.0574041954071,0.129908557896,-0.141388223098,0.681948549539,0.705747343414,0,1305031100005872420,/world,/kinect,1.06656370544,0.61807711792,1.41801940918,-0.422881795032,-0.368353964865,0.591604953078,0.579214919949
1554941724954873705,0,1305031100015939889,/kinect,/openni_camera,-0.0112272525515,0.0502554918469,-0.0574041954071,0.129908557896,-0.141388223098,0.681948549539,0.705747343414,0,1305031100015939889,/world,/kinect,1.06870683289,0.617619621277,1.4213605957,-0.422438284057,-0.36749884736,0.593122924402,0.578528901527
1554941724964943535,0,1305031100025852261,/kinect,/openni_camera,-0.0112272525515,0.0502554918469,-0.0574041954071,0.129908557896,-0.141388223098,0.681948549539,0.705747343414,0,1305031100025852261,/world,/kinect,1.07107316589,0.617075424194,1.42489855957,-0.42119491011,-0.366518939663,0.594830519054,0.578303871825
1554941724974819947,0,1305031100035859964,/kinect,/openni_camera,-0.0112272525515,0.0502554918469,-0.0574041954071,0.129908557896,-0.141388223098,0.681948549539,0.705747343414,0,1305031100035859964,/world,/kinect,1.07354327393,0.616505134583,1.4282355957,-0.420653079096,-0.365490669214,0.59601726566,0.57812712858
