%time,field.transforms0.header.seq,field.transforms0.header.stamp,field.transforms0.header.frame_id,field.transforms0.child_frame_id,field.transforms0.transform.translation.x,field.transforms0.transform.translation.y,field.transforms0.transform.translation.z,field.transforms0.transform.rotation.x,field.transforms0.transform.rotation.y,field.transforms0.transform.rotation.z,field.transforms0.transform.rotation.w,field.transforms1.header.seq,field.transforms1.header.stamp,field.transforms1.header.frame_id,field.transforms1.child_frame_id,field.transforms1.transform.translation.x,field.transforms1.transform.translation.y,field.transforms1.transform.translation.z,field.transforms1.transform.rotation.x,field.transforms1.transform.rotation.y,field.transforms1.transform.rotation.z,field.transforms1.transform.rotation.w
1554946559260921122,0,1305031449609464364,/kinect,/openni_camera,-0.0112272525515,0.0502554918469,-0.0574041954071,0.129908557896,-0.141388223098,0.681948549539,0.705747343414,0,1305031449609464364,/world,/kinect,1.19854605103,-0.0239475164413,1.7673732605,-0.44108448547,-0.262710118702,0.407382523851,0.755292889858
1554946559260952177,0,1305031449619470426,/kinect,/openni_camera,-0.0112272525515,0.0502554918469,-0.0574041954071,0.129908557896,-0.141388223098,0.681948549539,0.705747343414,0,1305031449619470426,/world,/kinect,1.19825848389,-0.0238718523979,1.76711120605,-0.440993710729,-0.262321646383,0.40699888732,0.755687638285
1554946559260972068,0,1305031449629531784,/kinect,/openni_camera,-0.0112272525515,0.0502554918469,-0.0574041954071,0.129908557896,-0.141388223098,0.681948549539,0.705747343414,0,1305031449629531784,/world,/kinect,1.19791360474,-0.0238744225502,1.76690853882,-0.441081849651,-0.26164022741,0.406644065089,0.756063355571
1554946559260981830,0,1305031449639482930,/kinect,/openni_camera,-0.0112272525515,0.0502554918469,-0.0574041954071,0.129908557896,-0.141388223098,0.681948549539,0.705747343414,0,1305031449639482930,/world,/kinect,1.1978352356,-0.0236549372673,1.76670614624,-0.441137694095,-0.261460701371,0.406685935082,0.756070358295
1554946559262565621,0,1305031449649473670,/kinect,/openni_camera,-0.0112272525515,0.0502554918469,-0.0574041954071,0.129908557896,-0.141388223098,0.681948549539,0.705747343414,0,1305031449649473670,/world,/kinect,1.19759960938,-0.0235614910126,1.76648928833,-0.441371653174,-0.261006358106,0.406430551114,0.756228108393
1554946559272615629,0,1305031449659517648,/kinect,/openni_camera,-0.0112272525515,0.0502554918469,-0.0574041954071,0.129908557896,-0.141388223098,0.681948549539,0.705747343414,0,1305031449659517648,/world,/kinect,1.19731658936,-0.0234663038254,1.76625119019,-0.441679958069,-0.260547829927,0.405964577942,0.756456478865
1554946559282638235,0,1305031449669475949,/kinect,/openni_camera,-0.0112272525515,0.0502554918469,-0.0574041954071,0.129908557896,-0.141388223098,0.681948549539,0.705747343414,0,1305031449669475949,/world,/kinect,1.19699615479,-0.0233691263199,1.76600817871,-0.441751210837,-0.260038314472,0.40561750476,0.756776309462
1554946559292785403,0,1305031449679473413,/kinect,/openni_camera,-0.0112272525515,0.0502554918469,-0.0574041954071,0.129908557896,-0.141388223098,0.681948549539,0.705747343414,0,1305031449679473413,/world,/kinect,1.1967515564,-0.023267056942,1.7657689209,-0.442005517041,-0.259723158981,0.405395056381,0.756855238375
1554946559302662756,0,1305031449689555040,/kinect,/openni_camera,-0.0112272525515,0.0502554918469,-0.0574041954071,0.129908557896,-0.141388223098,0.681948549539,0.705747343414,0,1305031449689555040,/world,/kinect,1.19653033447,-0.0231571264267,1.76557492065,-0.442339014412,-0.259445171825,0.405008009193,0.756962952617
1554946559312734437,0,1305031449699542515,/kinect,/openni_camera,-0.0112272525515,0.0502554918469,-0.0574041954071,0.129908557896,-0.141388223098,0.681948549539,0.705747343414,0,1305031449699542515,/world,/kinect,1.19630154419,-0.0230429525375,1.76541656494,-0.442476048001,-0.258993932429,0.404618736624,0.757245513611
1554946559322667760,0,1305031449709539732,/kinect,/openni_camera,-0.0112272525515,0.0502554918469,-0.0574041954071,0.129908557896,-0.141388223098,0.681948549539,0.705747343414,0,1305031449709539732,/world,/kinect,1.19611694336,-0.0229106125832,1.76529660034,-0.442633640547,-0.258487965846,0.404279290915,0.757507548944
1554946559332732180,0,1305031449719498138,/kinect,/openni_camera,-0.0112272525515,0.0502554918469,-0.0574041954071,0.129908557896,-0.141388223098,0.681948549539,0.705747343414,0,1305031449719498138,/world,/kinect,1.19594949341,-0.0227644476891,1.76519512939,-0.442646759367,-0.25775343842,0.404129439032,0.757830065326
1554946559342582578,0,1305031449729502737,/kinect,/openni_camera,-0.0112272525515,0.0502554918469,-0.0574041954071,0.129908557896,-0.141388223098,0.681948549539,0.705747343414,0,1305031449729502737,/world,/kinect,1.19577163696,-0.0226565022469,1.76506219482,-0.442781640985,-0.257059773344,0.404074071347,0.758016382541
1554946559352700908,0,1305031449739496482,/kinect,/openni_camera,-0.0112272525515,0.0502554918469,-0.0574041954071,0.129908557896,-0.141388223098,0.681948549539,0.705747343414,0,1305031449739496482,/world,/kinect,1.19561361694,-0.0225471763611,1.76495803833,-0.443332380534,-0.25658227829,0.404025366622,0.757882205863
1554946559362680788,0,1305031449749530260,/kinect,/openni_camera,-0.0112272525515,0.0502554918469,-0.0574041954071,0.129908557896,-0.141388223098,0.681948549539,0.705747343414,0,1305031449749530260,/world,/kinect,1.19543054199,-0.0224505882263,1.76477670288,-0.443679876827,-0.256201822213,0.404190754849,0.757719358924
1554946559372816762,0,1305031449759505100,/kinect,/openni_camera,-0.0112272525515,0.0502554918469,-0.0574041954071,0.129908557896,-0.141388223098,0.681948549539,0.705747343414,0,1305031449759505100,/world,/kinect,1.19528924561,-0.0223341579437,1.76453591919,-0.444316801864,-0.256094946115,0.404125831978,0.757416840375
1554946559382963890,0,1305031449769501970,/kinect,/openni_camera,-0.0112272525515,0.0502554918469,-0.0574041954071,0.129908557896,-0.141388223098,0.681948549539,0.705747343414,0,1305031449769501970,/world,/kinect,1.19505444336,-0.0222225651741,1.76421899414,-0.444479383385,-0.255369519574,0.40431008556,0.757468046146
1554946559389733015,0,1305031449776440066,/openni_camera,/openni_depth_frame,0.0,-0.02,0.0,0.0,0.0,0.0,1.0
1554946559392673478,0,1305031449779470647,/kinect,/openni_camera,-0.0112272525515,0.0502554918469,-0.0574041954071,0.129908557896,-0.141388223098,0.681948549539,0.705747343414,0,1305031449779470647,/world,/kinect,1.19470617676,-0.02213890028,1.76392144775,-0.445089567535,-0.254941581046,0.404098855048,0.757366610351
1554946559398697179,0,1305031449785480136,/openni_depth_frame,/openni_depth_optical_frame,0.0,0.0,0.0,-0.499999841466,0.499601836645,-0.499999841466,0.500398163355
1554946559402744862,0,1305031449789559966,/kinect,/openni_camera,-0.0112272525515,0.0502554918469,-0.0574041954071,0.129908557896,-0.141388223098,0.681948549539,0.705747343414,0,1305031449789559966,/world,/kinect,1.194390625,-0.0220077810287,1.76360287476,-0.446012734285,-0.254892172053,0.403721855677,0.75704113807
1554946559407734575,0,1305031449794464508,/openni_camera,/openni_rgb_frame,0.0,-0.04,0.0,0.0,0.0,0.0,1.0
1554946559412823346,0,1305031449799566742,/kinect,/openni_camera,-0.0112272525515,0.0502554918469,-0.0574041954071,0.129908557896,-0.141388223098,0.681948549539,0.705747343414,0,1305031449799566742,/world,/kinect,1.19394924927,-0.0220430412292,1.76331573486,-0.446332398281,-0.25426626019,0.403259598281,0.757309550691
1554946559419340199,0,1305031449806100707,/openni_rgb_frame,/openni_rgb_optical_frame,0.0,0.0,0.0,-0.499999841466,0.499601836645,-0.499999841466,0.500398163355
1554946559422759410,0,1305031449809578080,/kinect,/openni_camera,-0.0112272525515,0.0502554918469,-0.0574041954071,0.129908557896,-0.141388223098,0.681948549539,0.705747343414,0,1305031449809578080,/world,/kinect,1.19385540771,-0.0217753100395,1.76313037109,-0.446960608468,-0.25432354375,0.40316000708,0.756972759261
1554946559433094620,0,1305031449819614771,/kinect,/openni_camera,-0.0112272525515,0.0502554918469,-0.0574041954071,0.129908557896,-0.141388223098,0.681948549539,0.705747343414,0,1305031449819614771,/world,/kinect,1.19355535889,-0.0216360254288,1.76294000244,-0.447085597831,-0.253790555659,0.402937874659,0.757196071857
1554946559442750227,0,1305031449829515262,/kinect,/openni_camera,-0.0112272525515,0.0502554918469,-0.0574041954071,0.129908557896,-0.141388223098,0.681948549539,0.705747343414,0,1305031449829515262,/world,/kinect,1.19331585693,-0.0214814629555,1.7628041687,-0.447423806713,-0.253554645661,0.40260702449,0.757251320687
1554946559452840187,0,1305031449839560884,/kinect,/openni_camera,-0.0112272525515,0.0502554918469,-0.0574041954071,0.129908557896,-0.141388223098,0.681948549539,0.705747343414,0,1305031449839560884,/world,/kinect,1.19300759888,-0.0213873224258,1.76266387939,-0.447699287022,-0.253233419843,0.402405140977,0.757303298547
1554946559462893511,0,1305031449849548433,/kinect,/openni_camera,-0.0112272525515,0.0502554918469,-0.0574041954071,0.129908557896,-0.141388223098,0.681948549539,0.705747343414,0,1305031449849548433,/world,/kinect,1.19266992188,-0.0213690443039,1.7625758667,-0.448310389131,-0.253585729557,0.401714489547,0.757190558347
1554946559472796411,0,1305031449859477776,/kinect,/openni_camera,-0.0112272525515,0.0502554918469,-0.0574041954071,0.129908557896,-0.141388223098,0.681948549539,0.705747343414,0,1305031449859477776,/world,/kinect,1.19244177246,-0.0211876358986,1.76236779785,-0.44838457402,-0.253271455382,0.401260830939,0.757492303078
1554946559482880093,0,1305031449869553414,/kinect,/openni_camera,-0.0112272525515,0.0502554918469,-0.0574041954071,0.129908557896,-0.141388223098,0.681948549539,0.705747343414,0,1305031449869553414,/world,/kinect,1.19203204346,-0.0210730543137,1.76212768555,-0.44826674775,-0.252936669718,0.401030284794,0.757795932063
1554946559489848527,0,1305031449876568731,/openni_camera,/openni_depth_frame,0.0,-0.02,0.0,0.0,0.0,0.0,1.0
1554946559492944050,0,1305031449879519097,/kinect,/openni_camera,-0.0112272525515,0.0502554918469,-0.0574041954071,0.129908557896,-0.141388223098,0.681948549539,0.705747343414,0,1305031449879519097,/world,/kinect,1.19156295776,-0.0210245885849,1.76184179687,-0.448643172178,-0.252940826361,0.400700285568,0.757746345134
1554946559498967372,0,1305031449885608844,/openni_depth_frame,/openni_depth_optical_frame,0.0,0.0,0.0,-0.499999841466,0.499601836645,-0.499999841466,0.500398163355
1554946559502748916,0,1305031449889581114,/kinect,/openni_camera,-0.0112272525515,0.0502554918469,-0.0574041954071,0.129908557896,-0.141388223098,0.681948549539,0.705747343414,0,1305031449889581114,/world,/kinect,1.19092706299,-0.0208432588577,1.76151226807,-0.449110639057,-0.253185273959,0.400252537957,0.75762441671
1554946559508087106,0,1305031449894597656,/openni_camera,/openni_rgb_frame,0.0,-0.04,0.0,0.0,0.0,0.0,1.0
1554946559512773461,0,1305031449899444234,/kinect,/openni_camera,-0.0112272525515,0.0502554918469,-0.0574041954071,0.129908557896,-0.141388223098,0.681948549539,0.705747343414,0,1305031449899444234,/world,/kinect,1.19042028809,-0.0206745405197,1.76124130249,-0.449476079124,-0.253356239508,0.399744970041,0.757618524803
1554946559519541956,0,1305031449906193442,/openni_rgb_frame,/openni_rgb_optical_frame,0.0,0.0,0.0,-0.499999841466,0.499601836645,-0.499999841466,0.500398163355
1554946559522858730,0,1305031449909529698,/kinect,/openni_camera,-0.0112272525515,0.0502554918469,-0.0574041954071,0.129908557896,-0.141388223098,0.681948549539,0.705747343414,0,1305031449909529698,/world,/kinect,1.18991790771,-0.0206299495697,1.76099060059,-0.449696072836,-0.253850117003,0.39937267849,0.757518992401
1554946559532869177,0,1305031449919507464,/kinect,/openni_camera,-0.0112272525515,0.0502554918469,-0.0574041954071,0.129908557896,-0.141388223098,0.681948549539,0.705747343414,0,1305031449919507464,/world,/kinect,1.18931509399,-0.0206082077026,1.76072290039,-0.449400633024,-0.254087372298,0.398990911504,0.757815895065
1554946559542733910,0,1305031449929522268,/kinect,/openni_camera,-0.0112272525515,0.0502554918469,-0.0574041954071,0.129908557896,-0.141388223098,0.681948549539,0.705747343414,0,1305031449929522268,/world,/kinect,1.18863439941,-0.0205832099915,1.76052227783,-0.449022765906,-0.254268336865,0.39879945621,0.758079918144
1554946559552911013,0,1305031449939505027,/kinect,/openni_camera,-0.0112272525515,0.0502554918469,-0.0574041954071,0.129908557896,-0.141388223098,0.681948549539,0.705747343414,0,1305031449939505027,/world,/kinect,1.1880090332,-0.0206271495819,1.76036691284,-0.448249629181,-0.2543600151,0.398950725448,0.758427037573
1554946559562883115,0,1305031449949570009,/kinect,/openni_camera,-0.0112272525515,0.0502554918469,-0.0574041954071,0.129908557896,-0.141388223098,0.681948549539,0.705747343414,0,1305031449949570009,/world,/kinect,1.18751400757,-0.020612408638,1.76027752686,-0.447580900694,-0.254499553291,0.399087485871,0.758703165494
1554946559572869137,0,1305031449959525994,/kinect,/openni_camera,-0.0112272525515,0.0502554918469,-0.0574041954071,0.129908557896,-0.141388223098,0.681948549539,0.705747343414,0,1305031449959525994,/world,/kinect,1.18707730103,-0.0205364141464,1.76020169067,-0.447046426488,-0.254600088223,0.399416365887,0.75881147481
1554946559582895049,0,1305031449969564068,/kinect,/openni_camera,-0.0112272525515,0.0502554918469,-0.0574041954071,0.129908557896,-0.141388223098,0.681948549539,0.705747343414,0,1305031449969564068,/world,/kinect,1.18651461792,-0.0203934907913,1.76017233276,-0.446079632452,-0.254375663334,0.399910389476,0.759195405548
1554946559590056756,0,1305031449976701704,/openni_camera,/openni_depth_frame,0.0,-0.02,0.0,0.0,0.0,0.0,1.0
1554946559592933307,0,1305031449979484789,/kinect,/openni_camera,-0.0112272525515,0.0502554918469,-0.0574041954071,0.129908557896,-0.141388223098,0.681948549539,0.705747343414,0,1305031449979484789,/world,/kinect,1.18580715942,-0.0202289352417,1.76012939453,-0.445309326702,-0.254529706386,0.400388548752,0.7593439551
1554946559599079124,0,1305031449985734053,/openni_depth_frame,/openni_depth_optical_frame,0.0,0.0,0.0,-0.499999841466,0.499601836645,-0.499999841466,0.500398163355
1554946559602864419,0,1305031449989531239,/kinect,/openni_camera,-0.0112272525515,0.0502554918469,-0.0574041954071,0.129908557896,-0.141388223098,0.681948549539,0.705747343414,0,1305031449989531239,/world,/kinect,1.18505630493,-0.0199879570007,1.75995791626,-0.444095338768,-0.25448221159,0.401346058229,0.759565320175
1554946559608043671,0,1305031449994728815,/openni_camera,/openni_rgb_frame,0.0,-0.04,0.0,0.0,0.0,0.0,1.0
1554946559612729096,0,1305031449999447967,/kinect,/openni_camera,-0.0112272525515,0.0502554918469,-0.0574041954071,0.129908557896,-0.141388223098,0.681948549539,0.705747343414,0,1305031449999447967,/world,/kinect,1.18439755249,-0.0197446870804,1.75973339844,-0.44327908645,-0.254787549338,0.401955540668,0.75961746922
1554946559619678081,0,1305031450006285246,/openni_rgb_frame,/openni_rgb_optical_frame,0.0,0.0,0.0,-0.499999841466,0.499601836645,-0.499999841466,0.500398163355
1554946559622890285,0,1305031450009671410,/kinect,/openni_camera,-0.0112272525515,0.0502554918469,-0.0574041954071,0.129908557896,-0.141388223098,0.681948549539,0.705747343414,0,1305031450009671410,/world,/kinect,1.18357888794,-0.0194203281403,1.75941091919,-0.44251651556,-0.255350401826,0.402668404266,0.759495531224
1554946559632985828,0,1305031450019497770,/kinect,/openni_camera,-0.0112272525515,0.0502554918469,-0.0574041954071,0.129908557896,-0.141388223098,0.681948549539,0.705747343414,0,1305031450019497770,/world,/kinect,1.18262554932,-0.0190325737,1.75906417847,-0.442062164328,-0.256037441541,0.403665925038,0.758999138578
1554946559642841543,0,1305031450029556189,/kinect,/openni_camera,-0.0112272525515,0.0502554918469,-0.0574041954071,0.129908557896,-0.141388223098,0.681948549539,0.705747343414,0,1305031450029556189,/world,/kinect,1.18174890137,-0.0187184724808,1.75870321655,-0.442275391448,-0.257238917015,0.404319990268,0.758120018969
1554946559652926484,0,1305031450039456972,/kinect,/openni_camera,-0.0112272525515,0.0502554918469,-0.0574041954071,0.129908557896,-0.141388223098,0.681948549539,0.705747343414,0,1305031450039456972,/world,/kinect,1.18084527588,-0.0182954006195,1.75826046753,-0.442141058014,-0.258611655621,0.405490275431,0.757105628645
1554946559662791938,0,1305031450049545893,/kinect,/openni_camera,-0.0112272525515,0.0502554918469,-0.0574041954071,0.129908557896,-0.141388223098,0.681948549539,0.705747343414,0,1305031450049545893,/world,/kinect,1.18003225708,-0.0178436546326,1.75776867676,-0.441303667064,-0.259430372418,0.406298064726,0.756880993223
1554946559672986092,0,1305031450059548938,/kinect,/openni_camera,-0.0112272525515,0.0502554918469,-0.0574041954071,0.129908557896,-0.141388223098,0.681948549539,0.705747343414,0,1305031450059548938,/world,/kinect,1.17905645752,-0.0173742685318,1.75714971924,-0.441240955078,-0.260609213578,0.407177375919,0.75603957694
1554946559682895680,0,1305031450069564927,/kinect,/openni_camera,-0.0112272525515,0.0502554918469,-0.0574041954071,0.129908557896,-0.141388223098,0.681948549539,0.705747343414,0,1305031450069564927,/world,/kinect,1.1781701355,-0.0167634038925,1.75654260254,-0.441951221134,-0.261799740053,0.408463537226,0.754518093225
1554946559690185221,0,1305031450076823331,/openni_camera,/openni_depth_frame,0.0,-0.02,0.0,0.0,0.0,0.0,1.0
1554946559692903682,0,1305031450079468898,/kinect,/openni_camera,-0.0112272525515,0.0502554918469,-0.0574041954071,0.129908557896,-0.141388223098,0.681948549539,0.705747343414,0,1305031450079468898,/world,/kinect,1.17730410767,-0.0160362405777,1.75601245117,-0.442523458984,-0.26292977174,0.409707232351,0.753114139517
1554946559699089114,0,1305031450085886531,/openni_depth_frame,/openni_depth_optical_frame,0.0,0.0,0.0,-0.499999841466,0.499601836645,-0.499999841466,0.500398163355
1554946559702975896,0,1305031450089556808,/kinect,/openni_camera,-0.0112272525515,0.0502554918469,-0.0574041954071,0.129908557896,-0.141388223098,0.681948549539,0.705747343414,0,1305031450089556808,/world,/kinect,1.17654949951,-0.0153047676086,1.75543234253,-0.442729563103,-0.263597873267,0.410961326745,0.752075450393
1554946559708336370,0,1305031450094850371,/openni_camera,/openni_rgb_frame,0.0,-0.04,0.0,0.0,0.0,0.0,1.0
1554946559712682214,0,1305031450099476307,/kinect,/openni_camera,-0.0112272525515,0.0502554918469,-0.0574041954071,0.129908557896,-0.141388223098,0.681948549539,0.705747343414,0,1305031450099476307,/world,/kinect,1.17579830933,-0.0144293107986,1.7548977356,-0.442816850057,-0.264479986445,0.412507306647,0.750867029533
1554946559719624404,0,1305031450106381429,/openni_rgb_frame,/openni_rgb_optical_frame,0.0,0.0,0.0,-0.499999841466,0.499601836645,-0.499999841466,0.500398163355
1554946559722770835,0,1305031450109591067,/kinect,/openni_camera,-0.0112272525515,0.0502554918469,-0.0574041954071,0.129908557896,-0.141388223098,0.681948549539,0.705747343414,0,1305031450109591067,/world,/kinect,1.17491763306,-0.0136736221313,1.75423352051,-0.442991218499,-0.265584237634,0.414415677666,0.749321986304
1554946559732876956,0,1305031450119498019,/kinect,/openni_camera,-0.0112272525515,0.0502554918469,-0.0574041954071,0.129908557896,-0.141388223098,0.681948549539,0.705747343414,0,1305031450119498019,/world,/kinect,1.17425619507,-0.0129249343872,1.75361380005,-0.442990504967,-0.266766982807,0.416384341799,0.747809380322
1554946559742901701,0,1305031450129477514,/kinect,/openni_camera,-0.0112272525515,0.0502554918469,-0.0574041954071,0.129908557896,-0.141388223098,0.681948549539,0.705747343414,0,1305031450129477514,/world,/kinect,1.17365887451,-0.0121434783936,1.75299102783,-0.442663156129,-0.267757322002,0.418768302112,0.746316592249
1554946559752857077,0,1305031450139521207,/kinect,/openni_camera,-0.0112272525515,0.0502554918469,-0.0574041954071,0.129908557896,-0.141388223098,0.681948549539,0.705747343414,0,1305031450139521207,/world,/kinect,1.17304379272,-0.0112222967148,1.75239245605,-0.442438962946,-0.268474764137,0.421271403988,0.744781490956
1554946559762800152,0,1305031450149556103,/kinect,/openni_camera,-0.0112272525515,0.0502554918469,-0.0574041954071,0.129908557896,-0.141388223098,0.681948549539,0.705747343414,0,1305031450149556103,/world,/kinect,1.17242752075,-0.0102720441818,1.75172232056,-0.4427715556,-0.269795138714,0.423823768857,0.742655603648
1554946559772848452,0,1305031450159467047,/kinect,/openni_camera,-0.0112272525515,0.0502554918469,-0.0574041954071,0.129908557896,-0.141388223098,0.681948549539,0.705747343414,0,1305031450159467047,/world,/kinect,1.17195458984,-0.00925161075592,1.75116375732,-0.442306576358,-0.270651874699,0.426712222074,0.740965002389
1554946559783048757,0,1305031450169581004,/kinect,/openni_camera,-0.0112272525515,0.0502554918469,-0.0574041954071,0.129908557896,-0.141388223098,0.681948549539,0.705747343414,0,1305031450169581004,/world,/kinect,1.17141455078,-0.00827260780334,1.75053634644,-0.442142829148,-0.271232157987,0.429579570198,0.739191604373
1554946559790359752,0,1305031450177006889,/openni_camera,/openni_depth_frame,0.0,-0.02,0.0,0.0,0.0,0.0,1.0
1554946559792828925,0,1305031450179580556,/kinect,/openni_camera,-0.0112272525515,0.0502554918469,-0.0574041954071,0.129908557896,-0.141388223098,0.681948549539,0.705747343414,0,1305031450179580556,/world,/kinect,1.17110101318,-0.0070737323761,1.74981619263,-0.442533939923,-0.272257715775,0.432574735723,0.736830066048
1554946559799180573,0,1305031450185986765,/openni_depth_frame,/openni_depth_optical_frame,0.0,0.0,0.0,-0.499999841466,0.499601836645,-0.499999841466,0.500398163355
1554946559802840538,0,1305031450189504520,/kinect,/openni_camera,-0.0112272525515,0.0502554918469,-0.0574041954071,0.129908557896,-0.141388223098,0.681948549539,0.705747343414,0,1305031450189504520,/world,/kinect,1.17076763916,-0.00580020236969,1.74916467285,-0.442430728865,-0.272248447746,0.435861714028,0.734956052496
1554946559808194088,0,1305031450194980260,/openni_camera,/openni_rgb_frame,0.0,-0.04,0.0,0.0,0.0,0.0,1.0
1554946559812847544,0,1305031450199566044,/kinect,/openni_camera,-0.0112272525515,0.0502554918469,-0.0574041954071,0.129908557896,-0.141388223098,0.681948549539,0.705747343414,0,1305031450199566044,/world,/kinect,1.1705723877,-0.00448340129852,1.7485526123,-0.441951316967,-0.272417552719,0.439191977233,0.733197188713
1554946559819798102,0,1305031450206510924,/openni_rgb_frame,/openni_rgb_optical_frame,0.0,0.0,0.0,-0.499999841466,0.499601836645,-0.499999841466,0.500398163355
1554946559822839114,0,1305031450209574342,/kinect,/openni_camera,-0.0112272525515,0.0502554918469,-0.0574041954071,0.129908557896,-0.141388223098,0.681948549539,0.705747343414,0,1305031450209574342,/world,/kinect,1.17045758057,-0.00301590156555,1.74793313599,-0.442751378078,-0.272635856014,0.442376560447,0.730714640604
1554946559832774072,0,1305031450219600537,/kinect,/openni_camera,-0.0112272525515,0.0502554918469,-0.0574041954071,0.129908557896,-0.141388223098,0.681948549539,0.705747343414,0,1305031450219600537,/world,/kinect,1.17030322266,-0.00164262390137,1.74736227417,-0.442400849096,-0.272742216591,0.446028276621,0.728664496502
1554946559842741151,0,1305031450229495562,/kinect,/openni_camera,-0.0112272525515,0.0502554918469,-0.0574041954071,0.129908557896,-0.141388223098,0.681948549539,0.705747343414,0,1305031450229495562,/world,/kinect,1.1702432251,-0.000103591918945,1.7466675415,-0.441730155828,-0.272663052864,0.449867016016,0.726738602894
1554946559852869448,0,1305031450239518555,/kinect,/openni_camera,-0.0112272525515,0.0502554918469,-0.0574041954071,0.129908557896,-0.141388223098,0.681948549539,0.705747343414,0,1305031450239518555,/world,/kinect,1.17012716675,0.00134179115295,1.74593551636,-0.441548893484,-0.27354948328,0.453406897446,0.724311701002
1554946559862907371,0,1305031450249462929,/kinect,/openni_camera,-0.0112272525515,0.0502554918469,-0.0574041954071,0.129908557896,-0.141388223098,0.681948549539,0.705747343414,0,1305031450249462929,/world,/kinect,1.17019802856,0.00285356903076,1.74533935547,-0.439815382604,-0.274093370775,0.45747609547,0.722600079847
1554946559872899597,0,1305031450259487834,/kinect,/openni_camera,-0.0112272525515,0.0502554918469,-0.0574041954071,0.129908557896,-0.141388223098,0.681948549539,0.705747343414,0,1305031450259487834,/world,/kinect,1.17025552368,0.00424967098236,1.7445579834,-0.438532980814,-0.275355595305,0.461634791624,0.720250956289
1554946559882812374,0,1305031450269456174,/kinect,/openni_camera,-0.0112272525515,0.0502554918469,-0.0574041954071,0.129908557896,-0.141388223098,0.681948549539,0.705747343414,0,1305031450269456174,/world,/kinect,1.17022418213,0.0057219209671,1.74374072266,-0.437455946194,-0.276962820888,0.465738278769,0.71764318897
1554946559890586427,0,1305031450277113399,/openni_camera,/openni_depth_frame,0.0,-0.02,0.0,0.0,0.0,0.0,1.0
1554946559892823536,0,1305031450279544625,/kinect,/openni_camera,-0.0112272525515,0.0502554918469,-0.0574041954071,0.129908557896,-0.141388223098,0.681948549539,0.705747343414,0,1305031450279544625,/world,/kinect,1.17025662231,0.00737712240219,1.74284262085,-0.435812691281,-0.278554973642,0.470485771067,0.714924865983
1554946559899456929,0,1305031450286086678,/openni_depth_frame,/openni_depth_optical_frame,0.0,0.0,0.0,-0.499999841466,0.499601836645,-0.499999841466,0.500398163355
1554946559902930300,0,1305031450289589923,/kinect,/openni_camera,-0.0112272525515,0.0502554918469,-0.0574041954071,0.129908557896,-0.141388223098,0.681948549539,0.705747343414,0,1305031450289589923,/world,/kinect,1.17074581909,0.0084969086647,1.74198703003,-0.432612960128,-0.279326418686,0.47528736264,0.713389586038
1554946559908339615,0,1305031450295079098,/openni_camera,/openni_rgb_frame,0.0,-0.04,0.0,0.0,0.0,0.0,1.0
1554946559912792295,0,1305031450299496084,/kinect,/openni_camera,-0.0112272525515,0.0502554918469,-0.0574041954071,0.129908557896,-0.141388223098,0.681948549539,0.705747343414,0,1305031450299496084,/world,/kinect,1.17090612793,0.0101656932831,1.74113766479,-0.431577910688,-0.280813358457,0.480182503036,0.710147258318
1554946559920024751,0,1305031450306636819,/openni_rgb_frame,/openni_rgb_optical_frame,0.0,0.0,0.0,-0.499999841466,0.499601836645,-0.499999841466,0.500398163355
1554946559922988437,0,1305031450309505053,/kinect,/openni_camera,-0.0112272525515,0.0502554918469,-0.0574041954071,0.129908557896,-0.141388223098,0.681948549539,0.705747343414,0,1305031450309505053,/world,/kinect,1.17122268677,0.0120027127266,1.74032546997,-0.430927151059,-0.282651264043,0.484116907652,0.707135682271
1554946559932885080,0,1305031450319487064,/kinect,/openni_camera,-0.0112272525515,0.0502554918469,-0.0574041954071,0.129908557896,-0.141388223098,0.681948549539,0.705747343414,0,1305031450319487064,/world,/kinect,1.17141894531,0.0139171152115,1.73925247192,-0.429381021738,-0.283430116644,0.489532237815,0.70402947047
1554946559942898554,0,1305031450329532732,/kinect,/openni_camera,-0.0112272525515,0.0502554918469,-0.0574041954071,0.129908557896,-0.141388223098,0.681948549539,0.705747343414,0,1305031450329532732,/world,/kinect,1.17177349854,0.0159757180214,1.73821951294,-0.428939505415,-0.285247302362,0.494118145995,0.700351436772
1554946559952861400,0,1305031450339473744,/kinect,/openni_camera,-0.0112272525515,0.0502554918469,-0.0574041954071,0.129908557896,-0.141388223098,0.681948549539,0.705747343414,0,1305031450339473744,/world,/kinect,1.17211920166,0.018266834259,1.73715802002,-0.428268594258,-0.285835205121,0.498486509926,0.697420566164
1554946559962965551,0,1305031450349577354,/kinect,/openni_camera,-0.0112272525515,0.0502554918469,-0.0574041954071,0.129908557896,-0.141388223098,0.681948549539,0.705747343414,0,1305031450349577354,/world,/kinect,1.17248971558,0.0206275045872,1.7357507019,-0.428312818253,-0.286750678155,0.503061424393,0.693722842053
1554946559972812697,0,1305031450359491492,/kinect,/openni_camera,-0.0112272525515,0.0502554918469,-0.0574041954071,0.129908557896,-0.141388223098,0.681948549539,0.705747343414,0,1305031450359491492,/world,/kinect,1.17274902344,0.0234104075432,1.73436099243,-0.428846089365,-0.288179999932,0.506237035063,0.690483441949
1554946559982980379,0,1305031450369485039,/kinect,/openni_camera,-0.0112272525515,0.0502554918469,-0.0574041954071,0.129908557896,-0.141388223098,0.681948549539,0.705747343414,0,1305031450369485039,/world,/kinect,1.17326235962,0.0262428443432,1.73274954224,-0.430214942177,-0.289565860127,0.509248853911,0.686827722917
1554946559990705991,0,1305031450377253476,/openni_camera,/openni_depth_frame,0.0,-0.02,0.0,0.0,0.0,0.0,1.0
1554946559992917201,0,1305031450379491313,/kinect,/openni_camera,-0.0112272525515,0.0502554918469,-0.0574041954071,0.129908557896,-0.141388223098,0.681948549539,0.705747343414,0,1305031450379491313,/world,/kinect,1.17367523193,0.0291273907423,1.73097427368,-0.430400282564,-0.29018185323,0.512716957094,0.683865053013
1554946559999479208,0,1305031450386189508,/openni_depth_frame,/openni_depth_optical_frame,0.0,0.0,0.0,-0.499999841466,0.499601836645,-0.499999841466,0.500398163355
1554946560002830303,0,1305031450389518764,/kinect,/openni_camera,-0.0112272525515,0.0502554918469,-0.0574041954071,0.129908557896,-0.141388223098,0.681948549539,0.705747343414,0,1305031450389518764,/world,/kinect,1.17379434204,0.0319055905342,1.72935202026,-0.431262464402,-0.292792587391,0.515160353822,0.680363871334
1554946560008397533,0,1305031450395184270,/openni_camera,/openni_rgb_frame,0.0,-0.04,0.0,0.0,0.0,0.0,1.0
1554946560012937561,0,1305031450399524381,/kinect,/openni_camera,-0.0112272525515,0.0502554918469,-0.0574041954071,0.129908557896,-0.141388223098,0.681948549539,0.705747343414,0,1305031450399524381,/world,/kinect,1.17427236938,0.0348040811345,1.72757824707,-0.430043727783,-0.29329450852,0.518527682972,0.678358139523
1554946560020135842,0,1305031450406756424,/openni_rgb_frame,/openni_rgb_optical_frame,0.0,0.0,0.0,-0.499999841466,0.499601836645,-0.499999841466,0.500398163355
1554946560022784200,0,1305031450409474742,/kinect,/openni_camera,-0.0112272525515,0.0502554918469,-0.0574041954071,0.129908557896,-0.141388223098,0.681948549539,0.705747343414,0,1305031450409474742,/world,/kinect,1.17468710327,0.0377331134677,1.72603393555,-0.430329161708,-0.295985264527,0.520692384678,0.6753435987
1554946560032944555,0,1305031450419461111,/kinect,/openni_camera,-0.0112272525515,0.0502554918469,-0.0574041954071,0.129908557896,-0.141388223098,0.681948549539,0.705747343414,0,1305031450419461111,/world,/kinect,1.1751852417,0.040612939477,1.72418682861,-0.429537288448,-0.297361447798,0.52341141084,0.673137714141
1554946560042984776,0,1305031450429490662,/kinect,/openni_camera,-0.0112272525515,0.0502554918469,-0.0574041954071,0.129908557896,-0.141388223098,0.681948549539,0.705747343414,0,1305031450429490662,/world,/kinect,1.17581140137,0.0436674952507,1.72260113525,-0.427999938243,-0.298664198332,0.526126605778,0.671421286668
1554946560052881334,0,1305031450439502520,/kinect,/openni_camera,-0.0112272525515,0.0502554918469,-0.0574041954071,0.129908557896,-0.141388223098,0.681948549539,0.705747343414,0,1305031450439502520,/world,/kinect,1.17658770752,0.0467113618851,1.72088983154,-0.427810723596,-0.300080298738,0.528372325346,0.669143097472
1554946560062865689,0,1305031450449462453,/kinect,/openni_camera,-0.0112272525515,0.0502554918469,-0.0574041954071,0.129908557896,-0.141388223098,0.681948549539,0.705747343414,0,1305031450449462453,/world,/kinect,1.17710281372,0.0498771529198,1.71918676758,-0.426586850418,-0.300961223943,0.530742241522,0.667651611095
1554946560072993837,0,1305031450459493477,/kinect,/openni_camera,-0.0112272525515,0.0502554918469,-0.0574041954071,0.129908557896,-0.141388223098,0.681948549539,0.705747343414,0,1305031450459493477,/world,/kinect,1.1779130249,0.0533523674011,1.71750927734,-0.42627122945,-0.302269860005,0.532397059409,0.665942296156
1554946560082888985,0,1305031450469523183,/kinect,/openni_camera,-0.0112272525515,0.0502554918469,-0.0574041954071,0.129908557896,-0.141388223098,0.681948549539,0.705747343414,0,1305031450469523183,/world,/kinect,1.17874246216,0.0567571501732,1.71564822388,-0.425297191575,-0.302317301825,0.533890374654,0.665347740438
1554946560090771435,0,1305031450477438516,/openni_camera,/openni_depth_frame,0.0,-0.02,0.0,0.0,0.0,0.0,1.0
1554946560092867450,0,1305031450479571064,/kinect,/openni_camera,-0.0112272525515,0.0502554918469,-0.0574041954071,0.129908557896,-0.141388223098,0.681948549539,0.705747343414,0,1305031450479571064,/world,/kinect,1.17952172852,0.0603942337036,1.71384036255,-0.425396267415,-0.303605613487,0.534852989437,0.663923133215
1554946560099612662,0,1305031450486293280,/openni_depth_frame,/openni_depth_optical_frame,0.0,0.0,0.0,-0.499999841466,0.499601836645,-0.499999841466,0.500398163355
1554946560102871003,0,1305031450489567588,/kinect,/openni_camera,-0.0112272525515,0.0502554918469,-0.0574041954071,0.129908557896,-0.141388223098,0.681948549539,0.705747343414,0,1305031450489567588,/world,/kinect,1.1802517395,0.0642400350571,1.7117774353,-0.425161224266,-0.304435009812,0.535628004713,0.663068547549
1554946560108568628,0,1305031450495304624,/openni_camera,/openni_rgb_frame,0.0,-0.04,0.0,0.0,0.0,0.0,1.0
1554946560112644442,0,1305031450499470251,/kinect,/openni_camera,-0.0112272525515,0.0502554918469,-0.0574041954071,0.129908557896,-0.141388223098,0.681948549539,0.705747343414,0,1305031450499470251,/world,/kinect,1.18115026855,0.0680696926117,1.70977990723,-0.424935781563,-0.305348849346,0.535963310933,0.66252169103
1554946560120232456,0,1305031450506911653,/openni_rgb_frame,/openni_rgb_optical_frame,0.0,0.0,0.0,-0.499999841466,0.499601836645,-0.499999841466,0.500398163355
1554946560122899387,0,1305031450509446958,/kinect,/openni_camera,-0.0112272525515,0.0502554918469,-0.0574041954071,0.129908557896,-0.141388223098,0.681948549539,0.705747343414,0,1305031450509446958,/world,/kinect,1.18189962769,0.071746928215,1.70766491699,-0.424326302167,-0.306578796695,0.536180818319,0.662168226943
1554946560132738000,0,1305031450519508609,/kinect,/openni_camera,-0.0112272525515,0.0502554918469,-0.0574041954071,0.129908557896,-0.141388223098,0.681948549539,0.705747343414,0,1305031450519508609,/world,/kinect,1.18283358765,0.075327788353,1.70558444214,-0.422989688393,-0.307316296297,0.536580034527,0.662358123745
1554946560142671635,0,1305031450529480326,/kinect,/openni_camera,-0.0112272525515,0.0502554918469,-0.0574041954071,0.129908557896,-0.141388223098,0.681948549539,0.705747343414,0,1305031450529480326,/world,/kinect,1.18403677368,0.0792990188599,1.70346768188,-0.420952636557,-0.307703018106,0.537276285384,0.6629117012
1554946560152671830,0,1305031450539537093,/kinect,/openni_camera,-0.0112272525515,0.0502554918469,-0.0574041954071,0.129908557896,-0.141388223098,0.681948549539,0.705747343414,0,1305031450539537093,/world,/kinect,1.18508300781,0.0830089855194,1.701581604,-0.419537627872,-0.308916214028,0.53699237117,0.663474298534
1554946560162727888,0,1305031450549516404,/kinect,/openni_camera,-0.0112272525515,0.0502554918469,-0.0574041954071,0.129908557896,-0.141388223098,0.681948549539,0.705747343414,0,1305031450549516404,/world,/kinect,1.18616729736,0.0865288858414,1.69950411987,-0.417099180431,-0.309448902051,0.538234584519,0.663756870195
1554946560172981493,0,1305031450559509358,/kinect,/openni_camera,-0.0112272525515,0.0502554918469,-0.0574041954071,0.129908557896,-0.141388223098,0.681948549539,0.705747343414,0,1305031450559509358,/world,/kinect,1.18749401855,0.0901388931274,1.69737234497,-0.414640527785,-0.309837751845,0.538896653289,0.664578210089
1554946560182842447,0,1305031450569526223,/kinect,/openni_camera,-0.0112272525515,0.0502554918469,-0.0574041954071,0.129908557896,-0.141388223098,0.681948549539,0.705747343414,0,1305031450569526223,/world,/kinect,1.18870214844,0.0937700252533,1.69509216309,-0.412950821286,-0.310549896084,0.539995109708,0.664406248264
1554946560190893088,0,1305031450577575959,/openni_camera,/openni_depth_frame,0.0,-0.02,0.0,0.0,0.0,0.0,1.0
1554946560192851341,0,1305031450579563999,/kinect,/openni_camera,-0.0112272525515,0.0502554918469,-0.0574041954071,0.129908557896,-0.141388223098,0.681948549539,0.705747343414,0,1305031450579563999,/world,/kinect,1.18997848511,0.097710603714,1.69270550537,-0.412055377719,-0.311368428212,0.540261903055,0.664362208222
1554946560199769133,0,1305031450586393241,/openni_depth_frame,/openni_depth_optical_frame,0.0,0.0,0.0,-0.499999841466,0.499601836645,-0.499999841466,0.500398163355
1554946560202764199,0,1305031450589450412,/kinect,/openni_camera,-0.0112272525515,0.0502554918469,-0.0574041954071,0.129908557896,-0.141388223098,0.681948549539,0.705747343414,0,1305031450589450412,/world,/kinect,1.19124008179,0.101613886833,1.6902381897,-0.410656747711,-0.311195988429,0.540988672326,0.664717495452
1554946560208699081,0,1305031450595403654,/openni_camera,/openni_rgb_frame,0.0,-0.04,0.0,0.0,0.0,0.0,1.0
1554946560212930159,0,1305031450599542835,/kinect,/openni_camera,-0.0112272525515,0.0502554918469,-0.0574041954071,0.129908557896,-0.141388223098,0.681948549539,0.705747343414,0,1305031450599542835,/world,/kinect,1.19241680908,0.105505491257,1.68765829468,-0.41008753466,-0.312071833965,0.541387782294,0.664333239832
1554946560220336663,0,1305031450607014520,/openni_rgb_frame,/openni_rgb_optical_frame,0.0,0.0,0.0,-0.499999841466,0.499601836645,-0.499999841466,0.500398163355
1554946560222715123,0,1305031450609438350,/kinect,/openni_camera,-0.0112272525515,0.0502554918469,-0.0574041954071,0.129908557896,-0.141388223098,0.681948549539,0.705747343414,0,1305031450609438350,/world,/kinect,1.19358505249,0.109694700241,1.68497027588,-0.409614544313,-0.311629817319,0.541770736741,0.664520316361
1554946560233031101,0,1305031450619532632,/kinect,/openni_camera,-0.0112272525515,0.0502554918469,-0.0574041954071,0.129908557896,-0.141388223098,0.681948549539,0.705747343414,0,1305031450619532632,/world,/kinect,1.19491757202,0.113791439056,1.68230740356,-0.40933358061,-0.311636847713,0.54187412894,0.664605840568
1554946560242933916,0,1305031450629487546,/kinect,/openni_camera,-0.0112272525515,0.0502554918469,-0.0574041954071,0.129908557896,-0.141388223098,0.681948549539,0.705747343414,0,1305031450629487546,/world,/kinect,1.19613711548,0.117847688675,1.6795715332,-0.409274587381,-0.311207503911,0.542398962705,0.664415206697
1554946560252859945,0,1305031450639501862,/kinect,/openni_camera,-0.0112272525515,0.0502554918469,-0.0574041954071,0.129908557896,-0.141388223098,0.681948549539,0.705747343414,0,1305031450639501862,/world,/kinect,1.19749969482,0.122255968094,1.67680718994,-0.409502143587,-0.310600217387,0.543189601907,0.663913063388
1554946560262934571,0,1305031450649460567,/kinect,/openni_camera,-0.0112272525515,0.0502554918469,-0.0574041954071,0.129908557896,-0.141388223098,0.681948549539,0.705747343414,0,1305031450649460567,/world,/kinect,1.19872976685,0.126336128235,1.67393649292,-0.409354460356,-0.310060686793,0.544243212682,0.663393263262
1554946560272983973,0,1305031450659486481,/kinect,/openni_camera,-0.0112272525515,0.0502554918469,-0.0574041954071,0.129908557896,-0.141388223098,0.681948549539,0.705747343414,0,1305031450659486481,/world,/kinect,1.19979165649,0.13050847435,1.67099868774,-0.409441909367,-0.309467538381,0.545402573048,0.662663714757
1554946560282864062,0,1305031450669510413,/kinect,/openni_camera,-0.0112272525515,0.0502554918469,-0.0574041954071,0.129908557896,-0.141388223098,0.681948549539,0.705747343414,0,1305031450669510413,/world,/kinect,1.20095858765,0.134666440964,1.66794763184,-0.410064821269,-0.309194712199,0.54610866427,0.661823842963
1554946560291011338,0,1305031450677729860,/openni_camera,/openni_depth_frame,0.0,-0.02,0.0,0.0,0.0,0.0,1.0
1554946560292870466,0,1305031450679557080,/kinect,/openni_camera,-0.0112272525515,0.0502554918469,-0.0574041954071,0.129908557896,-0.141388223098,0.681948549539,0.705747343414,0,1305031450679557080,/world,/kinect,1.20201275635,0.138979139328,1.6647562561,-0.411256046774,-0.309089367584,0.546549615651,0.660769055322
1554946560299818225,0,1305031450686516748,/openni_depth_frame,/openni_depth_optical_frame,0.0,0.0,0.0,-0.499999841466,0.499601836645,-0.499999841466,0.500398163355
1554946560302854169,0,1305031450689478253,/kinect,/openni_camera,-0.0112272525515,0.0502554918469,-0.0574041954071,0.129908557896,-0.141388223098,0.681948549539,0.705747343414,0,1305031450689478253,/world,/kinect,1.20299124146,0.143082826614,1.66147033691,-0.412366672414,-0.309194852872,0.547585652895,0.659167826265
1554946560308819084,0,1305031450695498022,/openni_camera,/openni_rgb_frame,0.0,-0.04,0.0,0.0,0.0,0.0,1.0
1554946560312747968,0,1305031450699524279,/kinect,/openni_camera,-0.0112272525515,0.0502554918469,-0.0574041954071,0.129908557896,-0.141388223098,0.681948549539,0.705747343414,0,1305031450699524279,/world,/kinect,1.20388192749,0.147234634399,1.65822991943,-0.41376152602,-0.309833851683,0.547601455001,0.657979506077
1554946560320314707,0,1305031450707124150,/openni_rgb_frame,/openni_rgb_optical_frame,0.0,0.0,0.0,-0.499999841466,0.499601836645,-0.499999841466,0.500398163355
1554946560322778647,0,1305031450709513761,/kinect,/openni_camera,-0.0112272525515,0.0502554918469,-0.0574041954071,0.129908557896,-0.141388223098,0.681948549539,0.705747343414,0,1305031450709513761,/world,/kinect,1.20480093384,0.151544374466,1.65480111694,-0.415029169166,-0.309816773307,0.548215857074,0.656676274714
1554946560332964886,0,1305031450719530415,/kinect,/openni_camera,-0.0112272525515,0.0502554918469,-0.0574041954071,0.129908557896,-0.141388223098,0.681948549539,0.705747343414,0,1305031450719530415,/world,/kinect,1.20561804199,0.155677921295,1.65135321045,-0.416581268423,-0.310142403857,0.548289791121,0.655476956942
1554946560342867421,0,1305031450729582210,/kinect,/openni_camera,-0.0112272525515,0.0502554918469,-0.0574041954071,0.129908557896,-0.141388223098,0.681948549539,0.705747343414,0,1305031450729582210,/world,/kinect,1.20639251709,0.159847914696,1.64798825073,-0.417729254635,-0.31000244545,0.548092852727,0.654977082368
1554946560352872337,0,1305031450739557428,/kinect,/openni_camera,-0.0112272525515,0.0502554918469,-0.0574041954071,0.129908557896,-0.141388223098,0.681948549539,0.705747343414,0,1305031450739557428,/world,/kinect,1.20749688721,0.164240528107,1.64466677856,-0.419389696437,-0.309779460918,0.54764782776,0.654393478624
1554946560362975812,0,1305031450749531835,/kinect,/openni_camera,-0.0112272525515,0.0502554918469,-0.0574041954071,0.129908557896,-0.141388223098,0.681948549539,0.705747343414,0,1305031450749531835,/world,/kinect,1.20849108887,0.168488588333,1.64147723389,-0.419525148421,-0.30902866977,0.547911247797,0.654441132295
1554946560372891039,0,1305031450759600597,/kinect,/openni_camera,-0.0112272525515,0.0502554918469,-0.0574041954071,0.129908557896,-0.141388223098,0.681948549539,0.705747343414,0,1305031450759600597,/world,/kinect,1.20936932373,0.172659176826,1.63821179199,-0.419259424751,-0.307999881777,0.548148851005,0.654897277995
1554946560383007316,0,1305031450769553908,/kinect,/openni_camera,-0.0112272525515,0.0502554918469,-0.0574041954071,0.129908557896,-0.141388223098,0.681948549539,0.705747343414,0,1305031450769553908,/world,/kinect,1.21028805542,0.176758595467,1.634978302,-0.419502903046,-0.307716974142,0.547723097571,0.655230483531
1554946560391243131,0,1305031450777864112,/openni_camera,/openni_depth_frame,0.0,-0.02,0.0,0.0,0.0,0.0,1.0
1554946560392803685,0,1305031450779542530,/kinect,/openni_camera,-0.0112272525515,0.0502554918469,-0.0574041954071,0.129908557896,-0.141388223098,0.681948549539,0.705747343414,0,1305031450779542530,/world,/kinect,1.21118011475,0.180809750557,1.63176708984,-0.419698166303,-0.308046262827,0.546920590726,0.65562093972
1554946560399964542,0,1305031450786636101,/openni_depth_frame,/openni_depth_optical_frame,0.0,0.0,0.0,-0.499999841466,0.499601836645,-0.499999841466,0.500398163355
1554946560402800996,0,1305031450789469364,/kinect,/openni_camera,-0.0112272525515,0.0502554918469,-0.0574041954071,0.129908557896,-0.141388223098,0.681948549539,0.705747343414,0,1305031450789469364,/world,/kinect,1.21201538086,0.184828309059,1.62843197632,-0.419826771859,-0.308442028955,0.54606125754,0.656068669743
1554946560409029835,0,1305031450795631818,/openni_camera,/openni_rgb_frame,0.0,-0.04,0.0,0.0,0.0,0.0,1.0
1554946560412946349,0,1305031450799570479,/kinect,/openni_camera,-0.0112272525515,0.0502554918469,-0.0574041954071,0.129908557896,-0.141388223098,0.681948549539,0.705747343414,0,1305031450799570479,/world,/kinect,1.21277423096,0.188781537533,1.62501806641,-0.419673082318,-0.308656051173,0.545372571552,0.656638945122
1554946560420520567,0,1305031450807227242,/openni_rgb_frame,/openni_rgb_optical_frame,0.0,0.0,0.0,-0.499999841466,0.499601836645,-0.499999841466,0.500398163355
1554946560422768874,0,1305031450809445681,/kinect,/openni_camera,-0.0112272525515,0.0502554918469,-0.0574041954071,0.129908557896,-0.141388223098,0.681948549539,0.705747343414,0,1305031450809445681,/world,/kinect,1.21355169678,0.19269586134,1.62172290039,-0.420986437727,-0.310006142585,0.543491478089,0.656721877246
1554946560432855030,0,1305031450819518431,/kinect,/openni_camera,-0.0112272525515,0.0502554918469,-0.0574041954071,0.129908557896,-0.141388223098,0.681948549539,0.705747343414,0,1305031450819518431,/world,/kinect,1.214230896,0.19673098278,1.61843893433,-0.421692742833,-0.310417710223,0.542072463379,0.657246924883
1554946560442993186,0,1305031450829481960,/kinect,/openni_camera,-0.0112272525515,0.0502554918469,-0.0574041954071,0.129908557896,-0.141388223098,0.681948549539,0.705747343414,0,1305031450829481960,/world,/kinect,1.21502737427,0.200736049175,1.61524172974,-0.421723888238,-0.310449566935,0.540642319901,0.658388874763
1554946560453012826,0,1305031450839594551,/kinect,/openni_camera,-0.0112272525515,0.0502554918469,-0.0574041954071,0.129908557896,-0.141388223098,0.681948549539,0.705747343414,0,1305031450839594551,/world,/kinect,1.21545053101,0.204571124315,1.61192697144,-0.421082330274,-0.30955754355,0.54052143777,0.659318112654
1554946560462738097,0,1305031450849508538,/kinect,/openni_camera,-0.0112272525515,0.0502554918469,-0.0574041954071,0.129908557896,-0.141388223098,0.681948549539,0.705747343414,0,1305031450849508538,/world,/kinect,1.21627362061,0.208494669676,1.60880996704,-0.422028580047,-0.310335828345,0.538415917089,0.660069580798
1554946560472984755,0,1305031450859477600,/kinect,/openni_camera,-0.0112272525515,0.0502554918469,-0.0574041954071,0.129908557896,-0.141388223098,0.681948549539,0.705747343414,0,1305031450859477600,/world,/kinect,1.21674887085,0.212387281299,1.60566091919,-0.423045487105,-0.311315429186,0.5368170202,0.660259574875
1554946560482988522,0,1305031450869533893,/kinect,/openni_camera,-0.0112272525515,0.0502554918469,-0.0574041954071,0.129908557896,-0.141388223098,0.681948549539,0.705747343414,0,1305031450869533893,/world,/kinect,1.21723666382,0.216178622603,1.60251211548,-0.422423761235,-0.311811863149,0.536208384425,0.660917616965
1554946560491453920,0,1305031450877999488,/openni_camera,/openni_depth_frame,0.0,-0.02,0.0,0.0,0.0,0.0,1.0
1554946560492739544,0,1305031450879531305,/kinect,/openni_camera,-0.0112272525515,0.0502554918469,-0.0574041954071,0.129908557896,-0.141388223098,0.681948549539,0.705747343414,0,1305031450879531305,/world,/kinect,1.21800869751,0.220026741028,1.59943447876,-0.424287698642,-0.313771724455,0.533315677882,0.66113662842
1554946560500131333,0,1305031450886763512,/openni_depth_frame,/openni_depth_optical_frame,0.0,0.0,0.0,-0.499999841466,0.499601836645,-0.499999841466,0.500398163355
1554946560502928689,0,1305031450889474402,/kinect,/openni_camera,-0.0112272525515,0.0502554918469,-0.0574041954071,0.129908557896,-0.141388223098,0.681948549539,0.705747343414,0,1305031450889474402,/world,/kinect,1.2183477478,0.223834990859,1.5964425354,-0.423250143166,-0.31420778159,0.533594522456,0.661369542618
1554946560509140695,0,1305031450895762413,/openni_camera,/openni_rgb_frame,0.0,-0.04,0.0,0.0,0.0,0.0,1.0
1554946560513016126,0,1305031450899561008,/kinect,/openni_camera,-0.0112272525515,0.0502554918469,-0.0574041954071,0.129908557896,-0.141388223098,0.681948549539,0.705747343414,0,1305031450899561008,/world,/kinect,1.21908322144,0.227616183043,1.59360864258,-0.423894295722,-0.315350173981,0.532228419008,0.661514023906
1554946560520643798,0,1305031450907322437,/openni_rgb_frame,/openni_rgb_optical_frame,0.0,0.0,0.0,-0.499999841466,0.499601836645,-0.499999841466,0.500398163355
1554946560522836304,0,1305031450909524990,/kinect,/openni_camera,-0.0112272525515,0.0502554918469,-0.0574041954071,0.129908557896,-0.141388223098,0.681948549539,0.705747343414,0,1305031450909524990,/world,/kinect,1.21982061768,0.231492416859,1.59100219727,-0.422239778505,-0.314498105599,0.532478309115,0.66277549845
1554946560532829941,0,1305031450919447288,/kinect,/openni_camera,-0.0112272525515,0.0502554918469,-0.0574041954071,0.129908557896,-0.141388223098,0.681948549539,0.705747343414,0,1305031450919447288,/world,/kinect,1.22063705444,0.235439448357,1.58839306641,-0.421432555633,-0.313228029388,0.532770400761,0.66365540963
1554946560542923787,0,1305031450929465386,/kinect,/openni_camera,-0.0112272525515,0.0502554918469,-0.0574041954071,0.129908557896,-0.141388223098,0.681948549539,0.705747343414,0,1305031450929465386,/world,/kinect,1.22162796021,0.239483232498,1.58611401367,-0.42062643503,-0.311547067276,0.532612973669,0.665082887545
1554946560552857686,0,1305031450939480418,/kinect,/openni_camera,-0.0112272525515,0.0502554918469,-0.0574041954071,0.129908557896,-0.141388223098,0.681948549539,0.705747343414,0,1305031450939480418,/world,/kinect,1.22248257446,0.243496529579,1.58354046631,-0.419034113817,-0.308806162881,0.533482800674,0.66666728329
1554946560563038403,0,1305031450949538228,/kinect,/openni_camera,-0.0112272525515,0.0502554918469,-0.0574041954071,0.129908557896,-0.141388223098,0.681948549539,0.705747343414,0,1305031450949538228,/world,/kinect,1.2230958252,0.247553914547,1.58093829346,-0.418372361828,-0.307041087745,0.5339546832,0.667519837595
1554946560572992360,0,1305031450959487075,/kinect,/openni_camera,-0.0112272525515,0.0502554918469,-0.0574041954071,0.129908557896,-0.141388223098,0.681948549539,0.705747343414,0,1305031450959487075,/world,/kinect,1.22372998047,0.251539549828,1.57817382812,-0.418910689881,-0.30621504421,0.533859594338,0.66763771174
1554946560583033488,0,1305031450969552579,/kinect,/openni_camera,-0.0112272525515,0.0502554918469,-0.0574041954071,0.129908557896,-0.141388223098,0.681948549539,0.705747343414,0,1305031450969552579,/world,/kinect,1.22417016602,0.25556310463,1.57534866333,-0.418721092132,-0.304808309987,0.534372182595,0.667990203248
1554946560591639823,0,1305031450978131309,/openni_camera,/openni_depth_frame,0.0,-0.02,0.0,0.0,0.0,0.0,1.0
1554946560592784688,0,1305031450979555576,/kinect,/openni_camera,-0.0112272525515,0.0502554918469,-0.0574041954071,0.129908557896,-0.141388223098,0.681948549539,0.705747343414,0,1305031450979555576,/world,/kinect,1.22449893188,0.259448431015,1.57241140747,-0.418934425809,-0.304122906655,0.534836055997,0.667797572417
1554946560600313547,0,1305031450986918307,/openni_depth_frame,/openni_depth_optical_frame,0.0,0.0,0.0,-0.499999841466,0.499601836645,-0.499999841466,0.500398163355
1554946560602873819,0,1305031450989507715,/kinect,/openni_camera,-0.0112272525515,0.0502554918469,-0.0574041954071,0.129908557896,-0.141388223098,0.681948549539,0.705747343414,0,1305031450989507715,/world,/kinect,1.22487405396,0.263361388206,1.56951754761,-0.419014439626,-0.302717655045,0.535544167032,0.667818362931
1554946560609281406,0,1305031450995905947,/openni_camera,/openni_rgb_frame,0.0,-0.04,0.0,0.0,0.0,0.0,1.0
1554946560612948933,0,1305031450999555971,/kinect,/openni_camera,-0.0112272525515,0.0502554918469,-0.0574041954071,0.129908557896,-0.141388223098,0.681948549539,0.705747343414,0,1305031450999555971,/world,/kinect,1.22526977539,0.267277235031,1.56672659302,-0.419016487763,-0.300612428975,0.536565081431,0.667948548854
1554946560620740826,0,1305031451007414076,/openni_rgb_frame,/openni_rgb_optical_frame,0.0,0.0,0.0,-0.499999841466,0.499601836645,-0.499999841466,0.500398163355
1554946560623030968,0,1305031451009536472,/kinect,/openni_camera,-0.0112272525515,0.0502554918469,-0.0574041954071,0.129908557896,-0.141388223098,0.681948549539,0.705747343414,0,1305031451009536472,/world,/kinect,1.2255741272,0.271172319412,1.56382940674,-0.421312291868,-0.300204871966,0.53539140982,0.667629407576
1554946560632978392,0,1305031451019496481,/kinect,/openni_camera,-0.0112272525515,0.0502554918469,-0.0574041954071,0.129908557896,-0.141388223098,0.681948549539,0.705747343414,0,1305031451019496481,/world,/kinect,1.22584213257,0.274948477745,1.56099996948,-0.419062777526,-0.295621550192,0.538623096736,0.668490424177
1554946560642990634,0,1305031451029496284,/kinect,/openni_camera,-0.0112272525515,0.0502554918469,-0.0574041954071,0.129908557896,-0.141388223098,0.681948549539,0.705747343414,0,1305031451029496284,/world,/kinect,1.22622686768,0.278949692726,1.5579944458,-0.41774246497,-0.291445824063,0.540064913229,0.669985413346
1554946560652787831,0,1305031451039591575,/kinect,/openni_camera,-0.0112272525515,0.0502554918469,-0.0574041954071,0.129908557896,-0.141388223098,0.681948549539,0.705747343414,0,1305031451039591575,/world,/kinect,1.22632394409,0.282610774994,1.5549364624,-0.419544129543,-0.289997798428,0.540061362818,0.669490645689
1554946560662771247,0,1305031451049498960,/kinect,/openni_camera,-0.0112272525515,0.0502554918469,-0.0574041954071,0.129908557896,-0.141388223098,0.681948549539,0.705747343414,0,1305031451049498960,/world,/kinect,1.2262649231,0.28662071991,1.55160723877,-0.418978920643,-0.286477345452,0.54125162175,0.670398446115
1554946560672983926,0,1305031451059587040,/kinect,/openni_camera,-0.0112272525515,0.0502554918469,-0.0574041954071,0.129908557896,-0.141388223098,0.681948549539,0.705747343414,0,1305031451059587040,/world,/kinect,1.22581109619,0.290160816193,1.54826779175,-0.421107549561,-0.285297966805,0.54129164642,0.669534805185
1554946560682865993,0,1305031451069544354,/kinect,/openni_camera,-0.0112272525515,0.0502554918469,-0.0574041954071,0.129908557896,-0.141388223098,0.681948549539,0.705747343414,0,1305031451069544354,/world,/kinect,1.22548187256,0.293834926605,1.54464932251,-0.422098389742,-0.282792563495,0.542211263694,0.669229602552
1554946560691737935,0,1305031451078262519,/openni_camera,/openni_depth_frame,0.0,-0.02,0.0,0.0,0.0,0.0,1.0
1554946560692793207,0,1305031451079521232,/kinect,/openni_camera,-0.0112272525515,0.0502554918469,-0.0574041954071,0.129908557896,-0.141388223098,0.681948549539,0.705747343414,0,1305031451079521232,/world,/kinect,1.22483474731,0.297520822525,1.54095162964,-0.423282870593,-0.280154897529,0.543496206565,0.668548216886
1554946560700335955,0,1305031451087031584,/openni_depth_frame,/openni_depth_optical_frame,0.0,0.0,0.0,-0.499999841466,0.499601836645,-0.499999841466,0.500398163355
1554946560702991361,0,1305031451089540312,/kinect,/openni_camera,-0.0112272525515,0.0502554918469,-0.0574041954071,0.129908557896,-0.141388223098,0.681948549539,0.705747343414,0,1305031451089540312,/world,/kinect,1.22427597046,0.301268610001,1.53726748657,-0.424504627336,-0.277107797146,0.544558526602,0.668178944023
1554946560709335712,0,1305031451096017562,/openni_camera,/openni_rgb_frame,0.0,-0.04,0.0,0.0,0.0,0.0,1.0
1554946560713020515,0,1305031451099527105,/kinect,/openni_camera,-0.0112272525515,0.0502554918469,-0.0574041954071,0.129908557896,-0.141388223098,0.681948549539,0.705747343414,0,1305031451099527105,/world,/kinect,1.22366027832,0.305010213852,1.53349346924,-0.426825079431,-0.274730920575,0.544869563729,0.667428221887
1554946560720840487,0,1305031451107506138,/openni_rgb_frame,/openni_rgb_optical_frame,0.0,0.0,0.0,-0.499999841466,0.499601836645,-0.499999841466,0.500398163355
1554946560722873952,0,1305031451109582299,/kinect,/openni_camera,-0.0112272525515,0.0502554918469,-0.0574041954071,0.129908557896,-0.141388223098,0.681948549539,0.705747343414,0,1305031451109582299,/world,/kinect,1.22280819702,0.308785032272,1.52965408325,-0.428191774836,-0.270999078819,0.545588430672,0.66749124905
1554946560732777922,0,1305031451119544122,/kinect,/openni_camera,-0.0112272525515,0.0502554918469,-0.0574041954071,0.129908557896,-0.141388223098,0.681948549539,0.705747343414,0,1305031451119544122,/world,/kinect,1.22188961792,0.312432901382,1.52563269043,-0.431327264077,-0.268598101792,0.545743783718,0.666314920673
1554946560742730276,0,1305031451129499427,/kinect,/openni_camera,-0.0112272525515,0.0502554918469,-0.0574041954071,0.129908557896,-0.141388223098,0.681948549539,0.705747343414,0,1305031451129499427,/world,/kinect,1.2209503479,0.31593866539,1.52167272949,-0.433964054516,-0.26643821437,0.545675258883,0.665525648758
1554946560753008665,0,1305031451139561388,/kinect,/openni_camera,-0.0112272525515,0.0502554918469,-0.0574041954071,0.129908557896,-0.141388223098,0.681948549539,0.705747343414,0,1305031451139561388,/world,/kinect,1.21984796143,0.319280452728,1.51756503296,-0.435949058667,-0.263985588624,0.546390529983,0.664618248313
1554946560762961630,0,1305031451149499174,/kinect,/openni_camera,-0.0112272525515,0.0502554918469,-0.0574041954071,0.129908557896,-0.141388223098,0.681948549539,0.705747343414,0,1305031451149499174,/world,/kinect,1.21875680542,0.322444597244,1.51368719482,-0.438264231892,-0.262250159347,0.547262401784,0.663063481547
1554946560773007979,0,1305031451159525051,/kinect,/openni_camera,-0.0112272525515,0.0502554918469,-0.0574041954071,0.129908557896,-0.141388223098,0.681948549539,0.705747343414,0,1305031451159525051,/world,/kinect,1.21764672852,0.325428541183,1.50977706909,-0.439959461617,-0.260415793318,0.548851616325,0.661348009736
1554946560783067778,0,1305031451169593056,/kinect,/openni_camera,-0.0112272525515,0.0502554918469,-0.0574041954071,0.129908557896,-0.141388223098,0.681948549539,0.705747343414,0,1305031451169593056,/world,/kinect,1.21658093262,0.32824133873,1.5059262085,-0.440874077764,-0.257951493379,0.551032126933,0.659889892109
1554946560791880063,0,1305031451178388807,/openni_camera,/openni_depth_frame,0.0,-0.02,0.0,0.0,0.0,0.0,1.0
1554946560792755547,0,1305031451179612861,/kinect,/openni_camera,-0.0112272525515,0.0502554918469,-0.0574041954071,0.129908557896,-0.141388223098,0.681948549539,0.705747343414,0,1305031451179612861,/world,/kinect,1.21533700562,0.331186243057,1.50205844116,-0.442198653459,-0.25585765237,0.553362398768,0.657865691637
1554946560800463978,0,1305031451187138122,/openni_depth_frame,/openni_depth_optical_frame,0.0,0.0,0.0,-0.499999841466,0.499601836645,-0.499999841466,0.500398163355
1554946560802700725,0,1305031451189453768,/kinect,/openni_camera,-0.0112272525515,0.0502554918469,-0.0574041954071,0.129908557896,-0.141388223098,0.681948549539,0.705747343414,0,1305031451189453768,/world,/kinect,1.21408135986,0.333843536377,1.49811325073,-0.443876748722,-0.255376705638,0.555316489147,0.655270758575
1554946560809331233,0,1305031451196129494,/openni_camera,/openni_rgb_frame,0.0,-0.04,0.0,0.0,0.0,0.0,1.0
1554946560812958694,0,1305031451199517518,/kinect,/openni_camera,-0.0112272525515,0.0502554918469,-0.0574041954071,0.129908557896,-0.141388223098,0.681948549539,0.705747343414,0,1305031451199517518,/world,/kinect,1.21244668579,0.336587652206,1.49385144043,-0.446355989631,-0.254827170157,0.556607172423,0.65270046689
1554946560820947706,0,1305031451207632193,/openni_rgb_frame,/openni_rgb_optical_frame,0.0,0.0,0.0,-0.499999841466,0.499601836645,-0.499999841466,0.500398163355
